Data Year,ID,Property Name,Reporting Status,Address,ZIP Code,Chicago Energy Rating,Exempt From Chicago Energy Rating,Community Area,Primary Property Type,Gross Floor Area - Buildings (sq ft),Year Built,# of Buildings,Water Use (kGal),ENERGY STAR Score,Electricity Use (kBtu),Natural Gas Use (kBtu),District Steam Use (kBtu),District Chilled Water Use (kBtu),All Other Fuel Use (kBtu),Site EUI (kBtu/sq ft),Source EUI (kBtu/sq ft),Weather Normalized Site EUI (kBtu/sq ft),Weather Normalized Source EUI (kBtu/sq ft),Total GHG Emissions (Metric Tons CO2e),GHG Intensity (kg CO2e/sq ft),Latitude,Longitude,Location
2018,101751,,Exempt,7500 S SOUTH SHORE DR,60649,,true,SOUTH SHORE,,"70,000",,1,"15,034",,,,,,,,,,,,,41.76259226,-87.57231648,"(41.76259226, -87.57231648)"
2018,161147,72 E 11th St,Not Submitted,72 E 11th St,60605,0.0,false,LOOP,,"66,796",,1,"2,938",,,,,,,,,,,,,41.86954547,-87.62508911,"(41.86954547, -87.62508911)"
2017,159111,Aurora Chicago Lakeshore Hospital,Submitted,4840 N. Marine Drive,60640,,,UPTOWN,Other - Specialty Hospital,"51,140",1962,1,,,,,,,,,,,,,,41.97030477,-87.65057835,"(41.97030477, -87.65057835)"
2016,146897,Vision Rentals,Submitted,1624 W. Division St,60622,,,WEST TOWN,Multifamily Housing,"62,218",2009,1,,,,,,,,,,,,,,41.90225377,-87.68447845,"(41.90225377, -87.68447845)"
2016,175120,Polish Roman Catholic Union of America,Submitted,984 N. Milwaukee Ave,60642,,,WEST TOWN,Office,"100,000",1912,1,,,,,,,,,,,,,,41.89940453,-87.66143331,"(41.89940453, -87.66143331)"
2016,134790,East West University,Submitted,819 S.Wabash,60605,,,LOOP,Office,"100,000",1910,1,,,,,,,,,,,,,,41.87141289,-87.6251142,"(41.87141289, -87.6251142)"
2017,136784,Columbus Manor Nursing Home,Submitted,5107 W. Jackson Blvd.,60644,,,AUSTIN,Other - Lodging/Residential,"50,371",1959,5,,,,,,,,,,,,,,41.87643089,-87.75408077,"(41.87643089, -87.75408077)"
2015,251266,363 W. Erie,Submitted,363 W. Erie,60654,,,NEAR NORTH SIDE,Office,"121,018",1914,1,,100,"1,479,926","1,894,420",,,,27.9,54.8,29.1,56.1,398,3.3,41.893716060000003,-87.638161960000005,"(41.89371606, -87.63816196)"
2016,175867,Six Corners Plaza,Submitted,3970-3982 Milwaukee Avenue,60641,,,PORTAGE PARK,Strip Mall,"80,596",1966,1,,,,,,,,,,,,,,41.952901,-87.746534,"(41.952901, -87.746534)"
2018,254997,Linkt Apartments,Not Submitted,830 N MILWAUKEE AVE,60642,0.0,false,West Town,,"54,068",,1,847,,,,,,,,,,,,,41.89700341,-87.65666942,"(41.89700341, -87.65666942)"
2018,102093,551 555 N PINE AVE,Not Submitted,551 555 N PINE AVE,60644,0.0,false,AUSTIN,,"71,880",,1,,,,,,,,,,,,,,41.88039405,-87.75826967,"(41.88039405, -87.75826967)"
2018,251654,Cook Elementary -CPS,Exempt,8150 S Bishop St,60620,,true,AUBURN GRESHAM,,"112,492",,1,407,,,,,,,,,,,,,41.74519291,-87.66017258,"(41.74519291, -87.66017258)"
2018,255758,Key Elementary School Main Building,Exempt,517 N Parkside Ave,60644,,true,Austin,,"60,000",,1,,,,,,,,,,,,,,41.88511,-87.76714,"(41.88511, -87.76714)"
2018,104384,6011 6015 N KENMORE AVE,Not Submitted,6011 6015 N KENMORE AVE,60660,0.0,false,EDGEWATER,,"53,760",,1,"3,302",,,,,,,,,,,,,41.99090057,-87.66660744,"(41.99090057, -87.66660744)"
2018,173835,Sears,Exempt,1900 W Lawrence Ave,60640,,true,LINCOLN SQUARE,,"154,471",,1,,,,,,,,,,,,,,41.9690756,-87.67696468,"(41.9690756, -87.67696468)"
2018,141524,949 W MADISON,Not Submitted,949 W MADISON,60607,0.0,false,NEAR WEST SIDE,,"137,880",,1,"1,956",,,,,,,,,,,,,41.87399385,-87.651678,"(41.87399385, -87.651678)"
2018,105858,546 550 W ARLINGTON PL,Not Submitted,546 550 W ARLINGTON PL,60614,0.0,false,LINCOLN PARK,,"54,212",,1,"1,174",,,,,,,,,,,,,41.92201051,-87.65461957,"(41.92201051, -87.65461957)"
2018,172448,,Exempt,100 118 N PULASKI RD,60624,,true,WEST GARFIELD PARK,,"123,991",,1,,,,,,,,,,,,,,41.8808242,-87.72327934,"(41.8808242, -87.72327934)"
2018,135166,One West Monroe,Not Submitted,1 W Monroe St,60603,0.0,false,LOOP,,"57,600",,1,759,,,,,,,,,,,,,41.88073481,-87.62786771,"(41.88073481, -87.62786771)"
2018,251468,Fiske Elementary -CPS,Exempt,6145 S Ingleside Ave,60637,,true,WOODLAWN,,"73,930",,1,14,,,,,,,,,,,,,41.78300182,-87.60225838,"(41.78300182, -87.60225838)"
2018,112016,4106 N NARRAGANSETT AVE,Not Submitted,4106 N NARRAGANSETT AVE,60634,0.0,false,DUNNING,,"84,000",,1,,,,,,,,,,,,,,41.94530408,-87.80186746,"(41.94530408, -87.80186746)"
2018,171956,,Exempt,465 W CERMAK RD,60616,,true,ARMOUR SQUARE,,"59,754",,1,44,,,,,,,,,,,,,41.85228915,-87.63994745,"(41.85228915, -87.63994745)"
2018,251945,916 S Wabash Ave,Not Submitted,916 S Wabash Ave,60605,0.0,false,LOOP,,"66,358",,1,866,,,,,,,,,,,,,41.870306,-87.62591,"(41.870306, -87.62591)"
2018,175686,1001 W BELMONT AVE,Not Submitted,1001 W BELMONT AVE,60657,0.0,false,LAKE VIEW,,"79,012",,1,"1,829",,,,,,,,,,,,,41.9398511,-87.65844752,"(41.9398511, -87.65844752)"
2018,254369,Therapeutic Youth Home,Not Submitted,3640 W FILLMORE ST,60624,0.0,false,North Lawndale,,"54,000",,1,"1,958",,,,,,,,,,,,,41.87443626,-87.71790135,"(41.87443626, -87.71790135)"
2018,251492,Attucks -CPS,Exempt,5055 S State St,60609,,true,GRAND BOULEVARD,,"62,986",,1,104,,,,,,,,,,,,,41.80222267,-87.62509745,"(41.80222267, -87.62509745)"
2018,119564,Plaza Arms,Not Submitted,501 525 N CENTRAL AVE,60644,0.0,false,AUSTIN,,"110,200",,1,"5,026",,,,,,,,,,,,,41.88039405,-87.75826967,"(41.88039405, -87.75826967)"
2018,159298,YUSUF INDIANA,Not Submitted,1911 S Indiana Ave,60616,0.0,false,NEAR SOUTH SIDE,,"205,265",,1,785,,,,,,,,,,,,,41.85635481,-87.62186424,"(41.85635481, -87.62186424)"
2018,251462,Graham Elementary -CPS,Exempt,4436 S Union Ave,60609,,true,NEW CITY,,"116,500",,1,"3,488",,,,,,,,,,,,,41.81341181,-87.64414047,"(41.81341181, -87.64414047)"
2018,255003,L - Logan Square Apartment Community Navigator Taproom,Not Submitted,2211 N MILWAUKEE AVE,60647,0.0,false,Logan Square,,"119,727",,1,"2,472",,,,,,,,,,,,,41.92105626,-87.69421012,"(41.92105626, -87.69421012)"
2018,251630,St Bride School Building,Not Submitted,7765 S Coles Ave,60649,0.0,false,SOUTH SHORE,,"103,410",,1,81,,,,,,,,,,,,,41.75502424,-87.55293307,"(41.75502424, -87.55293307)"
2018,104374,6000 N SHERIDAN RD,Not Submitted,6000 N SHERIDAN RD,60660,0.0,false,EDGEWATER,,"55,686",,1,"3,401",,,,,,,,,,,,,41.99090057,-87.66660744,"(41.99090057, -87.66660744)"
2018,251683,Cooper Dual Language Academy -CPS,Exempt,1624 W 19th St,60608,,true,LOWER WEST SIDE,,"131,200",,1,961,,,,,,,,,,,,,41.85622477,-87.66713005,"(41.85622477, -87.66713005)"
2018,159745,Clarendon Court Apartments,Exempt,4500 N CLARENDON AVE,60640,,true,UPTOWN,,"113,992",,1,"9,412",,,,,,,,,,,,,41.96394063,-87.65039391,"(41.96394063, -87.65039391)"
2018,255984,,Exempt,737 N Ada St,60642,,true,WEST TOWN,,"50,000",,1,76,,,,,,,,,,,,,41.88425,-87.63245,"(41.88425, -87.63245)"
2018,251667,Fort Dearborn Elementary -CPS,Exempt,9001 S Throop St,60620,,true,WASHINGTON HEIGHTS,,"130,562",,1,332,,,,,,,,,,,,,41.730334,-87.65556,"(41.730334, -87.65556)"
2017,159418,"Third Prairie Shores, LLC",Submitted,3001 South King Dr,60616,,,DOUGLAS,Multifamily Housing,"289,267",1960,1,,,"4,917,323","29,519,515",,,,119,160.5,128.7,170.4,"2,477.1",8.6,41.83920388,-87.61661637,"(41.83920388, -87.61661637)"
2018,252064,Mansueto Library,Submitted,1100 East 57th Street,60637,2.0,false,HYDE PARK,Library,"64,028",2009,1,,,"2,863,289",,"13,603,648.3","7,150,679.5",,368.9,482.4,370.5,483.6,"1,756.5",27.4,41.79221307,-87.59994981,"(41.79221307, -87.59994981)"
2017,251265,3150 N Sheridan,Submitted,3150 North Sheridan Road,60657,,,LAKE VIEW,Multifamily Housing,"227,900",1974,1,,73,"7,413,863",,,,,32.5,102.1,34.6,108.7,"1,370.8",6,41.93922563,-87.63986123,"(41.93922563, -87.63986123)"
2017,159594,Wrightwood III LLC,Submitted,451 W Wrightwood Ave,60614,,,LINCOLN PARK,Multifamily Housing,"116,380",1933,1,,86,"1,727,762","7,312,302",,,,77.7,112.6,83.1,118.1,707.8,6.1,41.93048495,-87.64109185,"(41.93048495, -87.64109185)"
2018,116166,447 455 W MELROSE ST,Not Submitted,447 455 W MELROSE ST,60657,0.0,false,LAKE VIEW,,"52,872",,1,"2,064",,,,,,,,,,,,,41.9398511,-87.65844752,"(41.9398511, -87.65844752)"
2016,107970,Taylor Park,Submitted,41 W 47th St,60609,,,GRAND BOULEVARD,Other,"150,000",1964,1,,,"1,163,621.7","2,236,958.2",,,,22.7,40,24.2,41,334,2.2,41.81195152,-87.65512794,"(41.81195152, -87.65512794)"
2016,252301,1934 N. Washtenaw CA,Submitted,1934 N. Washtenaw Avenue,60647,,,LOGAN SQUARE,Multifamily Housing,"84,012",2001,1,,91,"1,865,964.8","2,440,443.7",,,,51.3,100.2,53.6,101.4,473.6,5.6,41.91657013,-87.69476694,"(41.91657013, -87.69476694)"
2016,251777,Tolton Manor,Submitted,6345 South Stewart,60621,,,ENGLEWOOD,Multifamily Housing,"69,960",1995,1,,38,"1,737,028.7","4,799,012.6",,,,93.4,150,102.3,159.4,575.1,8.2,41.77851372,-87.63461273,"(41.77851372, -87.63461273)"
2016,241989,30 East Elm Condominium Association,Submitted,30 E Elm St,60611,,,NEAR NORTH SIDE,Multifamily Housing,"102,100",1958,1,,28,"2,526,894.8","9,459,331.3",,,,117.4,175,128.2,183.2,968.2,9.5,41.90322796,-87.62742084,"(41.90322796, -87.62742084)"
2018,160455,Infinite Chicago,Submitted,28 E Jackson Blvd,60604,3.0,false,LOOP,Multifamily Housing,"215,000",1911,2,"6,219",69,"6,378,068.7","9,247,512.3",,,,72.7,128.2,73.1,128.9,"1,552.3",7.2,41.878258,-87.626777,"(41.878258, -87.626777)"
2017,253951,18th Street Lofts,Submitted,1801 S Michigan Avenue,60616,,,NEAR SOUTH SIDE,Multifamily Housing,"67,722",1998,1,,97,"1,360,883","2,116,740",,,,51.4,95.9,54.1,98.5,364.1,5.4,41.84550365,-87.63055693,"(41.84550365, -87.63055693)"
2018,255937,seven 10 west,Exempt,710 W Grand Ave,60654,,true,WEST TOWN,,"111,934",,1,"1,410",,,,,,,,,,,,,41.89213,-87.63513,"(41.89213, -87.63513)"
2016,175973,Winchester Hood Garden Homes Trust R-704,Submitted,1940-60 W Hood ave,60660,,,WEST RIDGE,Multifamily Housing,"73,600",1951,1,,18,"2,030,146.8","7,737,499.7",,,,132.7,197,143.3,208.1,785.2,10.7,41.99090057,-87.66660744,"(41.99090057, -87.66660744)"
2018,106128,,Exempt,5530 5548 N SHERIDAN RD,60640,,true,EDGEWATER,,"58,240",,1,"1,489",,,,,,,,,,,,,41.97223008,-87.6645957,"(41.97223008, -87.6645957)"
2016,251267,Erie on the Park Condominium Association,Submitted,510 W Erie St,60654,,,NEAR NORTH SIDE,Multifamily Housing,"243,690",2002,1,,25,"3,800,408.4","14,470,918.2",,"7,586,686.1",,106.1,142.5,112.1,148.9,"1,868.9",7.7,41.893928,-87.641583,"(41.893928, -87.641583)"
2016,251464,FiskeSexton-CPS,Submitted,6020 S LANGLEY AVE,60637,,,WOODLAWN,K-12 School,"105,274",1915,1,,25,"4,222,230.6","3,775,022.3",,,,76,163.6,83,174.5,978.8,9.3,41.78535521,-87.60906725,"(41.78535521, -87.60906725)"
2016,251687,PeirceSchOf-CPS,Submitted,1423 W Bryn Mawr Ave,60660,,,EDGEWATER,K-12 School,"133,238",1930,1,,65,"3,703,756.7","3,522,390.3",,,,54.2,115,57.5,118.4,869.8,6.5,41.98305225,-87.66613248,"(41.98305225, -87.66613248)"
2016,173948,#8598-LINCOLN & MCCORMICK,Submitted,6211 Lincoln Ave,60659,,,NORTH PARK,Retail Store,"142,657",2004,1,,79,"5,718,798.6","3,543,156",,,,64.9,152,67,152.4,"1,242.3",8.7,41.99582772,-87.71424303,"(41.99582772, -87.71424303)"
2015,159639,00806-Brookdale Lake Shore Drive,Submitted,2960 North Lake Shore Drive,60657,,,LAKE VIEW,Multifamily Housing,"476,214",1988,1,,21,"13,030,732","28,111,696",,,,86.4,147.9,89.7,150.6,"4,111",8.6,41.935961630000001,-87.637368929999994,"(41.93596163, -87.63736893)"
2017,105586,HRTL - Parkway Apts: 712 W Diversey,Submitted,712 West Diversey Parkway,60614,,,LAKE VIEW,Multifamily Housing,"52,624",1929,1,,27,"2,648,455","1,565,881",,,,80.1,189.3,80.1,189.3,572.9,10.9,41.92201051,-87.65461957,"(41.92201051, -87.65461957)"
2018,167479,Lincoln Park Condos,Not Submitted,2650 2700 N CLARK ST,60614,0.0,false,LINCOLN PARK,,"143,000",,1,"2,283",,,,,,,,,,,,,41.93184564,-87.6446088,"(41.93184564, -87.6446088)"
2017,156942,Burton-Judson Courts,Submitted,1005 East 60TH Street,60637,,,WOODLAWN,Residence Hall/Dormitory,"201,402",1931,1,,71,"3,762,805",,"11,050,470",,,73.6,124.7,79.1,131.9,"1,429.5",7.1,41.78528948,-87.60016256,"(41.78528948, -87.60016256)"
2017,160429,Academy Square Senior,Submitted,318 S Throop St,60607,,,NEAR WEST SIDE,Multifamily Housing,"87,388",1984,1,,1,"5,783,262","3,137,440",,,,102.1,245.5,109,261.3,"1,235.9",14.1,41.87710779,-87.65983466,"(41.87710779, -87.65983466)"
2018,239488,1111 S. Wabash Condominium Association,Submitted,1111 S. Wabash,60605,2.0,false,LOOP,Multifamily Housing,"402,312",2005,1,"13,750",13,"13,575,849.8","32,556,419.7",,,,114.7,179.5,115.6,180.4,"3,987.8",9.9,41.86876308,-87.625369,"(41.86876308, -87.625369)"
2018,174206,The Ambassador Condominium Homeowners Association,Submitted,1300 N State Parkway,60610,1.0,false,NEAR NORTH SIDE,Multifamily Housing,"148,466",2004,1,"2,338",30,"4,792,416.7","8,788,061.8",,,,91.5,152.5,89.6,149,"1,264.1",8.5,41.9037528,-87.63558845,"(41.9037528, -87.63558845)"
2016,251237,1242 Lake Shore Drive,Submitted,1242 N. Lake Shore Drive,60610,,,NEAR NORTH SIDE,Multifamily Housing,"136,591",1929,1,,35,"2,113,409.9","12,908,311.4",,,,110,147.8,122.5,160.9,"1,075.2",7.9,41.90531026,-87.62553343,"(41.90531026, -87.62553343)"
2016,173710,1430 Lake Shore Drive Building Corporation,Submitted,1430 Lake Shore Drive,60610,,,NEAR NORTH SIDE,Multifamily Housing,"103,565",1928,1,,9,"2,874,500.8","6,743,199.9",,,,92.9,155.5,101.4,164.5,888,8.6,41.9037528,-87.63558845,"(41.9037528, -87.63558845)"
2016,251739,North Grand-CPS,Submitted,4330 W Wabansia Ave,60639,,,HUMBOLDT PARK,K-12 School,"205,094",2000,1,,20,"13,165,161.1","10,855,285.9",,,,117.1,257.1,121.6,257.8,"3,003.2",14.6,41.911616,-87.735051,"(41.911616, -87.735051)"
2014,103614,Ann & Robert H. Lurie Children's Hospital of Chicago,Submitted,225 E Chicago Ave,60611,,,NEAR NORTH SIDE,Hospital (General Medical & Surgical),"1,250,000",2012,1,,34,"118,414,722","193,087,199",,,"1,940,418",251,461,244,451,"34,191",27.35,41.896764,-87.621559,"(41.896764, -87.621559)"
2016,101987,20 S. Clark,Submitted,20 S. Clark Street,60603,,,LOOP,Office,"464,592",1970,1,,78,"26,910,440.6",,,,,57.9,181.9,60.4,189.7,"4,960.2",10.7,41.88129971,-87.6311826,"(41.88129971, -87.6311826)"
2018,251443,Madison Elementary -CPS,Exempt,7401 S Dorchester,60619,,true,SOUTH SHORE,,"72,211",,1,291,,,,,,,,,,,,,41.760452,-87.590792,"(41.760452, -87.590792)"
2017,160196,The Art Institute of Chicago,Submitted,111 South Michigan Ave,60603,,,LOOP,Museum,"1,008,416",1892,1,,,"84,934,097","159,962,683",,,,242.9,431,247.3,435,"24,200.3",24,41.880452,-87.624229,"(41.880452, -87.624229)"
2016,101742,James R Thompson Center,Submitted,100 W. Randolph St.,60601,,,LOOP,Office,"1,200,000",1985,1,,51,"84,099,419.6","39,312,631",,,,102.8,254.5,108,259.8,"17,589.4",14.7,41.88517287,-87.63173182,"(41.88517287, -87.63173182)"
2017,114204,"Goethe-Astor, Inc.",Submitted,1301 N Astor Street,60610,,,NEAR NORTH SIDE,Multifamily Housing,"62,970",1928,1,,,"1,627,207","3,528,311",,,,81.9,140,88.6,147.6,488.3,7.8,41.9037528,-87.63558845,"(41.9037528, -87.63558845)"
2018,175495,House of Blues Chicago,Submitted,329 N. Dearborn St.,60654,2.0,false,NEAR NORTH SIDE,Performing Arts,"54,600",1996,1,"27,245",,"7,216,076.3","4,463,290.9",,,,213.9,455.9,213.9,455.9,"1,437.6",26.3,41.88833261,-87.62950362,"(41.88833261, -87.62950362)"
2018,174135,Times Square Apartments,Submitted,869 Buena,60613,3.0,false,UPTOWN,Multifamily Housing,"142,000",1923,1,"5,362",63,"2,714,194.8","10,305,964.9",,,,91.7,129.7,92.1,130.2,998.9,7,41.95402016,-87.6620278,"(41.95402016, -87.6620278)"
2015,176021,MetraMarket of Chicago,Submitted,118 N. Canal Street,60661,,,NEAR WEST SIDE,Mixed Use Property,"62,792",2006,1,,,"9,587,659","7,981,279",,,,279.8,612.9,292.3,630.29999999999995,"2,350",37.4,41.883698000000003,-87.639810999999995,"(41.883698, -87.639811)"
2015,159637,Hawthorne House,Submitted,3450 N Lake Shore Drive,60657,,,LAKE VIEW,Multifamily Housing,"530,632",1968,1,,19,"16,596,630","32,654,746",,,,92.8,162.80000000000001,96,166.2,"5,069",9.6,41.945132270000002,-87.642212979999996,"(41.94513227, -87.64221298)"
2018,159287,Scio at Medical District Apartments,Submitted,901-903 S Ashland Ave,60607,3.0,false,NEAR WEST SIDE,Multifamily Housing,"343,718",1971,2,"10,184",65,"8,988,958.4","19,608,388.5",,,,83.2,133.1,82.8,130.3,"2,536.9",7.4,41.86976757,-87.66601375,"(41.86976757, -87.66601375)"
2016,175535,3100 S King Condominium Association,Submitted,3100 S King Dr,60616,,,DOUGLAS,Multifamily Housing,"64,800",1978,1,,53,"2,714,055.6","724,545.1",,,,53.1,143.3,57.4,156.3,538.7,8.3,41.84550365,-87.63055693,"(41.84550365, -87.63055693)"
2018,115754,Urban Van Buren LP,Submitted,1504 W Van Buren St,60607,1.0,false,NEAR WEST SIDE,Multifamily Housing,"51,859",1984,1,"6,145",30,"2,391,242.2","4,845,862.1",,,,139.6,227.2,138.8,224.2,655.2,12.6,41.87399385,-87.651678,"(41.87399385, -87.651678)"
2015,101912,550 West Washington,Submitted,550 West Washington,60661,,,NEAR WEST SIDE,Office,"392,503",2000,1,,88,"25,425,316",,,,,64.8,203.4,64.900000000000006,203.9,"5,108",13,41.88353377,-87.641669699999994,"(41.88353377, -87.6416697)"
2016,101739,One South Dearborn,Submitted,1 South Dearborn,60603,,,LOOP,Office,"942,732",2005,1,,84,"55,026,620.6",,,,,58.4,183.3,59,185.4,"10,142.6",10.8,41.88165139,-87.62884674,"(41.88165139, -87.62884674)"
2016,254099,Powell-CPS,Submitted,7511 S South Shore Dr.,60649,,,South Shore,K-12 School,"113,516",1975,1,,81,"3,242,458.1","3,122,018.8",,,,56.1,118.6,59.4,122,763.5,6.7,41.7626302,-87.57255,"(41.7626302, -87.57255)"
2015,156500,Flat Iron Building,Submitted,1565 1581 N Milwaukee Ave,60622,,,WEST TOWN,Office,"70,575",1913,1,,84,"753,666","6,027,665",,,,96.1,123.2,103,130.4,472,6.7,41.910261120000001,-87.676748020000005,"(41.91026112, -87.67674802)"
2016,101492,Wright College,Submitted,4300 North Narragansett,60634,,,DUNNING,College/University,"544,380",1993,4,,,"20,698,062.1","30,723,190.6",,,,94.5,178.6,96.4,178.3,"5,458.8",10,41.95813043,-87.78958012,"(41.95813043, -87.78958012)"
2018,172387,Wrigley GIC,Submitted,1132 West Blackhawk,60622,,true,NEAR NORTH SIDE,Office,"191,780",2005,1,"10,849",,"22,885,631.7","32,320,900.7",,,,287.9,511.1,289.3,512.2,"5,524.1",28.8,41.90715786,-87.65671987,"(41.90715786, -87.65671987)"
2017,175539,6244-46 S King Drive,Submitted,6244-56 S. King Drive,60637,,,WASHINGTON PARK,Multifamily Housing,"55,000",1923,1,,65,"1,089,083","5,441,732",,,,118.7,166.1,128.1,175.9,490.4,8.9,41.78046327,-87.6053081,"(41.78046327, -87.6053081)"
2017,251289,1164 West Madison,Submitted,1164 W. Madison St.,60607,,,NEAR WEST SIDE,Multifamily Housing,"253,422",2014,1,,69,"7,007,989","7,321,825",,,,56.5,117.2,58.9,119.9,"1,684.6",6.6,41.88194574,-87.65691125,"(41.88194574, -87.65691125)"
2016,118349,Chicago Bar Association,Submitted,321 S. Plymouth Ct.,60604,,,LOOP,Office,"99,051",1990,1,,34,"9,867,309.5",,,,,99.6,312.8,99.6,312.8,"1,818.8",18.4,41.87761956,-87.62845092,"(41.87761956, -87.62845092)"
2015,251434,Nicholson Ma-CPS,Submitted,6006 S Peoria St,60621,,,ENGLEWOOD,K-12 School,"71,602",1958,1,,55,"1,727,924","4,456,683",,,,86.4,141.1,91.2,146.19999999999999,584,8.1999999999999993,41.784490329999997,-87.647681520000006,"(41.78449033, -87.64768152)"
2018,173495,Parish_StJuliana,Submitted,7200 N Osceola Ave,60631,3.0,false,EDISON PARK,Other,"113,580",1927,4,575,,"1,446,050.6","8,748,896.2",,,,89.8,116.5,93,119.9,705.3,6.2,42.011611,-87.811524,"(42.011611, -87.811524)"
2017,103743,33 N. Dearborn,Submitted,33 N. Dearborn,60602,,,LOOP,Office,"372,137",1966,1,,92,"8,443,697","13,958,306",,"7,805,688",,81.2,131.6,85.5,136.2,"2,714",7.3,41.88287054,-87.62903883,"(41.88287054, -87.62903883)"
2015,160379,Optima Chicago Center,Submitted,200 E Illinios St.,60611,,,NEAR NORTH SIDE,Multifamily Housing,"567,862",2014,1,,81,"14,049,217","12,590,687",,,,46.9,101,47.9,102,"3,491",6.1,41.891016999999998,-87.619777999999997,"(41.891017, -87.619778)"
2017,128170,Brewery Apartments,Submitted,1301 W Fletcher Street,60657,,,LAKE VIEW,Multifamily Housing,"60,500",1898,1,,15,"1,545,691","5,007,085",,,,108.3,167.1,115.5,174.7,551.7,9.1,41.93884641,-87.66171973,"(41.93884641, -87.66171973)"
2018,119323,#1976 Lincoln Park,Submitted,2647 2679 N Halsted St,60614,1.0,false,LINCOLN PARK,Retail Store,"80,069",2003,1,477,14,"7,271,009.5","725,879",,,,99.9,263.8,97.7,257.8,"1,248.2",15.6,41.93099766,-87.64894109,"(41.93099766, -87.64894109)"
2017,251563,Castellanos-CPS,Submitted,2524 S Central Ave,60623,,,AUSTIN,K-12 School,"84,116",1903,1,,35,"1,453,094","3,366,431",,,,57.3,96.3,65.5,104.9,447.5,5.3,41.869894,-87.764317,"(41.869894, -87.764317)"
2016,251377,HurleyEdward-CPS,Submitted,3849 W 69th Pl,60629,,,WEST LAWN,K-12 School,"55,250",1954,1,,56,"1,935,592.1","2,121,240.6",,,,73.4,150.3,79.7,156.9,469.4,8.5,41.76655157,-87.71928277,"(41.76655157, -87.71928277)"
2016,101682,Triangle Plaza,Submitted,8750-8770 West Bryn Mawr Ave,60631,,,OHARE,Office,"676,939",1985,1,,87,"36,895,150.2","311,522.3",,,,55,171.6,55.9,174.7,"6,817.1",10.1,41.98305124,-87.84427691,"(41.98305124, -87.84427691)"
2018,101950,332 Property LLC,Submitted,332 South Michigan Ave.,60604,2.5,false,LOOP,Office,"529,401",1910,1,"6,848",51,"18,482,084.1","31,711,096.2",,,,94.8,160.6,95.6,161.5,"4,759.1",9,41.87724917,-87.6247034,"(41.87724917, -87.6247034)"
2017,252105,611 S. Wells Street Condo (The Vetro),Submitted,611 S. Wells,60607,,,LOOP,Multifamily Housing,"290,149",2007,1,,18,"13,145,375","8,376,120",,,,74.2,172.6,78.2,181.1,"2,875.4",9.9,41.8740597,-87.63330942,"(41.8740597, -87.63330942)"
2015,250051,Simeon Caree-CPS,Submitted,8235 S VINCENNES AVE,60620,,,CHATHAM,K-12 School,"284,691",2003,1,,26,"13,717,564","16,385,844",,,,105.7,211.7,109.6,214.3,"3,626",12.7,41.744236000000001,-87.635863000000001,"(41.744236, -87.635863)"
2018,102455,Harper Center (Booth School),Submitted,5807 South Woodlawn Ave.,60637,,true,HYDE PARK,College/University,"419,312",2004,1,"7,580",,"23,410,755.6","618,850","23,657,916.3",,,113.7,225.8,114.2,226.3,"5,498.4",13.1,41.7891404,-87.59555249,"(41.7891404, -87.59555249)"
2017,175472,Tower Lofts Condo,Submitted,1601 West School Street,60657,,,LAKE VIEW,Multifamily Housing,"176,062",1915,1,,19,"7,337,622","6,612,467",,,,79.2,170.3,82.3,173.5,"1,707.9",9.7,41.83439716,-87.66593914,"(41.83439716, -87.66593914)"
2018,113335,Ravinia Lofts Condominium Association,Submitted,2024-2030 S. Wabash Ave.,60616,4.0,false,NEAR SOUTH SIDE,Multifamily Housing,"61,500",1920,1,"1,384",91,"1,244,499.7","2,591,573.6",,,,62.4,100.9,60,96.9,344.7,5.6,41.84550365,-87.63055693,"(41.84550365, -87.63055693)"
2016,132533,"Elston Industrial lofts, Llc",Submitted,1737-1747 N Elston/ 1430-1454 W Willow,60642,,,WEST TOWN,Mixed Use Property,"83,011.4",1923,1,,,"1,495,633.1","1,348,266.6",,,,34.3,73.6,36.4,75.9,347.3,4.2,41.91442839,-87.66380985,"(41.91442839, -87.66380985)"
2016,101545,Reside at 849,Submitted,849-863 West Buena Avenue,60613,,,UPTOWN,Multifamily Housing,"61,056",1925,1,,80,"603,204.1","3,526,900",,,,67.6,91.7,73.8,98.2,298.5,4.9,41.95402016,-87.6620278,"(41.95402016, -87.6620278)"
2015,103600,10 South LaSalle Street,Submitted,10 South LaSalle Street,60603,,,LOOP,Office,"871,962",1986,1,,71,"54,408,400","728,300",,,,63.2,196.8,64.8,201.6,"10,970",12.6,41.881605729999997,-87.632727799999998,"(41.88160573, -87.6327278)"
2016,260032,Algonquin #3,Submitted,1616 E. 50th Street,60615,,,KENWOOD,Multifamily Housing,"59,310",1950,1,,53,"759,869.5","5,501,499.7",,,,105.6,137.6,116,147.5,432.3,7.3,41.80224043,-87.60332678,"(41.80224043, -87.60332678)"
2016,252024,CICS Loomis,Submitted,9535 S. Loomis St.,60643,,,WASHINGTON HEIGHTS,K-12 School,"52,000",1961,1,,34,"1,354,576.3","3,199,673.9",,,,87.6,146.4,95.6,154.3,419.6,8.1,41.72018758,-87.65671845,"(41.72018758, -87.65671845)"
2016,250087,Fannie Emanuel,Submitted,3916 W. Washington,60624,,,WEST GARFIELD PARK,Multifamily Housing,"94,952",1963,1,,100,"707,061.9",,,,,7.4,23.4,7.4,23.4,130.3,1.4,41.88234002,-87.72390213,"(41.88234002, -87.72390213)"
2016,253991,(IL546) - Pac Lofts,Submitted,1735 N. Paulina,60622,,,West Town,Multifamily Housing,"104,905",2006,1,,42,"3,610,766.1","4,968,712.9",,,,81.8,157.8,85.1,157.7,929.5,8.9,41.9134254,-87.67006,"(41.9134254, -87.67006)"
2016,251929,600 S Michigan,Submitted,600 S Michigan,606051996,,,LOOP,College/University,"175,129",1960,1,,,"10,767,924","6,256,441.6",,,,97.2,230.6,102.9,236.6,"2,317.1",13.2,41.87405317,-87.62482805,"(41.87405317, -87.62482805)"
2016,252295,Renaissance Saint Luke,Submitted,1501 W. Belmont Ave.,60657,,,LAKE VIEW,Multifamily Housing,"75,000",2005,1,,100,"964,525.7","1,603,996",,,,34.2,62.8,35.6,64.1,263,3.5,41.93970456,-87.6663379,"(41.93970456, -87.6663379)"
2018,250034,Broadway Armory,Submitted,5917 North Broadway,60660,2.0,false,EDGEWATER,Other - Recreation,"157,000",1916,1,"1,286",,"4,187,803.5","8,013,912.6",,,,77.7,128.3,78,128.1,"1,122.4",7.1,41.9891405,-87.65967018,"(41.9891405, -87.65967018)"
2018,174155,Sovereign- ID#174155,Submitted,1040 W Granville,60660,1.0,false,EDGEWATER,Multifamily Housing,"140,000",1925,1,"15,263",1,"4,715,264.6","18,847,699.8",,,,168.3,235.7,170,236.8,"1,785.5",12.8,41.99090057,-87.66660744,"(41.99090057, -87.66660744)"
2017,251269,USEF GC Century Tower LLC,Submitted,182 W Lake St,60601,,,LOOP,Multifamily Housing,"447,300",1930,1,,87,"7,561,545","13,245,700",,,,46.5,84.2,49.5,87.3,"2,101.6",4.7,41.885758,-87.633762,"(41.885758, -87.633762)"
2018,251671,Sherwood Ele-CPS,Submitted,245 W 57TH ST,60621,1.0,false,ENGLEWOOD,K-12 School,"52,237",1951,1,761,24,"1,455,576.3","4,096,507.8",,,,106.3,160.4,101.7,155.5,459.7,8.8,41.79063666,-87.63226193,"(41.79063666, -87.63226193)"
2018,250106,Maudelle Brown Bousfield Apartments,Submitted,4949 S. COTTAGE GROVE,60615,3.5,false,KENWOOD,Multifamily Housing,"67,320",1961,1,"2,822",78,"1,427,642.2","6,698,732.7",,,,120.7,163.9,122.6,165.8,593.3,8.8,41.80460403,-87.6060299,"(41.80460403, -87.6060299)"
2017,172037,Bishop Plaza,Submitted,1400-24 W. 47th Street,60609,,,NEW CITY,Strip Mall,"62,183",1981,2,,,"2,193,561","1,467,283",,,,58.9,123.5,,,442.9,7.1,41.80996786,-87.6606919,"(41.80996786, -87.6606919)"
2017,251872,Goode High S-CPS,Submitted,7651 South Homan Ave,60652,,,ASHBURN,K-12 School,"208,200",2012,1,,46,"10,637,231","1,222,792",,,,57,166.6,57.8,168.9,"2,031.7",9.8,41.753986,-87.707413,"(41.753986, -87.707413)"
2017,251754,Murray-CPS,Submitted,5335 S KENWOOD AVE,60615,,,HYDE PARK,K-12 School,"73,984",1959,1,,29,"3,684,639","3,247,046",,,,93.7,202.5,99.6,207.1,853.7,11.5,41.79867799,-87.59280228,"(41.79867799, -87.59280228)"
2018,250155,NMH 211 East Ontario,Submitted,211 East Ontario,60611,2.0,false,NEAR NORTH SIDE,Office,"188,172",1983,1,"2,797",35,"14,288,371",,,,,75.9,212.6,74.9,209.7,"2,377.1",12.6,41.89311288,-87.62202043,"(41.89311288, -87.62202043)"
2017,252121,"15094 Chicago (Lurie), IL - US Central",Submitted,211 East Grand,60611,,,NEAR NORTH SIDE,Hotel,"106,200",2012,1,,49,"5,785,964","2,913,600",,,,81.9,199.9,83.9,201.9,"1,224.5",11.5,41.89145765,-87.62213489,"(41.89145765, -87.62213489)"
2016,159936,7130 Cyril Court Apartments,Submitted,7130 S. Cyril Ct.,60649,,,SOUTH SHORE,Multifamily Housing,"81,140",1929,1,,33,"1,341,714.4","8,418,473",,,,120.3,160.9,132.7,173.9,694.5,8.6,41.76506128,-87.57735119,"(41.76506128, -87.57735119)"
2015,175953,Hotel Blake,Submitted,500 S Dearborn Street,60605,,,LOOP,Hotel,"150,000",1896,1,,,"6,572,614","8,167,240",,,,98.3,194.8,100.2,195.2,"1,754",11.7,41.868632120000001,-87.627306869999998,"(41.86863212, -87.62730687)"
2015,251952,Hicks,Submitted,970 E.59th St.,60637,,,HYDE PARK,Laboratory,"53,522",1931,1,,,"4,048,792",,"3,164,100",,,134.80000000000001,308.7,134.80000000000001,308.7,"1,024",19.100000000000001,41.787765,-87.601883999999998,"(41.787765, -87.601884)"
2015,175679,240 N. Ashland,Submitted,240 N. Ashland,60607,,,NEAR WEST SIDE,Office,"81,887",1900,1,,98,"1,546,683","941,887",,,,30.4,71.400000000000006,31.1,71.5,361,4.4000000000000004,41.886554820000001,-87.667604060000002,"(41.88655482, -87.66760406)"
2018,130379,444 North Wabash,Submitted,444 North Wabash,60611,4.0,false,NEAR NORTH SIDE,Office,"57,780",1895,1,"1,462",,"3,189,274.2","4,202,495.7",,,,127.9,230.9,125.9,228.7,753.8,13,41.89014125,-87.62668588,"(41.89014125, -87.62668588)"
2018,160026,East Point Condominium Association,Submitted,6101 N Sheridan Road East,60660,3.0,false,EDGEWATER,Multifamily Housing,"315,190",1968,1,"7,262",69,"13,944,871.3",,,,,44.2,123.9,43.3,121.2,"2,319.9",7.4,41.99252588,-87.65505628,"(41.99252588, -87.65505628)"
2015,252091,1301 East 47th Street,Submitted,1301 East 47th Street,60653,,,KENWOOD,Other - Recreation,"92,000",1999,1,,,"3,581,150","71,321",,,,39.700000000000003,123,39.799999999999997,123.1,723,7.9,41.80917058,-87.593955429999994,"(41.80917058, -87.59395543)"
2016,102803,235-Senior Suites of New City,Submitted,4845 S. Western Avenue,60609,,,NEW CITY,Senior Care Community,"89,556",2004,1,,46,"2,716,938.1","5,056,700.1",,,,86.8,154.5,91.9,158.7,769.4,8.6,41.81195152,-87.65512794,"(41.81195152, -87.65512794)"
2016,251796,Chippewa Apartments,Submitted,5050 South East End Avenue,60615,,,KENWOOD,Multifamily Housing,"74,550",1951,1,,63,"1,246,137.5","6,033,274.4",,,,97.6,137.5,106.5,146.8,550.1,7.4,41.80322573,-87.58572889,"(41.80322573, -87.58572889)"
2018,244318,Edge Lofts & Tower Condominium Association,Submitted,210 South Des Plaines Street,60661,1.0,false,NEAR WEST SIDE,Multifamily Housing,"237,826",2004,1,"8,166",17,"9,005,165.4","19,439,232.8",,,,119.6,191.8,120.2,192.3,"2,530.6",10.6,41.87894567,-87.64445559,"(41.87894567, -87.64445559)"
2017,161204,Illinois College of Optometry,Submitted,3241 South Michigan Ave,60616,,,DOUGLAS,College/University,"333,084",1968,2,,,"13,417,113","11,348,161",,,,74.4,162.3,74.2,161.8,"3,083.5",9.3,41.83550388,-87.62254535,"(41.83550388, -87.62254535)"
2015,241405,Kinzie Park Tower Condominium Association,Submitted,501 N. Clinton St.,60654,,,WEST TOWN,Multifamily Housing,"292,095",1999,1,,9,"11,545,420","20,158,943",,,,108.5,196.6,113.6,201.2,"3,390",11.6,41.89102115,-87.642190940000006,"(41.89102115, -87.64219094)"
2015,250176,Aviation Administration Building,Submitted,O'Hare Int'l Airport,60666,,,OHARE,Office,"166,041",1943,1,,56,"10,262,921","5,789,800",,,,96.7,230.7,97.3,230.7,"2,370",14.3,41.99489655,-87.887751649999998,"(41.99489655, -87.88775165)"
2017,159283,401 South Clinton,Submitted,401 S Clinton St,60607,,,NEAR WEST SIDE,Office,"163,900",1996,1,,36,"15,374,933",,,,,93.8,294.6,95.8,301,"2,842.7",17.3,41.87634749,-87.64069198,"(41.87634749, -87.64069198)"
2018,242732,The Residences at Hudson & Huron Condominium Association,Submitted,451 W. Huron St.,60654,4.0,false,NEAR NORTH SIDE,Multifamily Housing,"218,635",2007,1,"5,699",93,"3,605,487.7","7,194,722.3",,,,49.4,80.7,48,78.8,982,4.5,41.89447341,-87.64046966,"(41.89447341, -87.64046966)"
2016,129920,The Thompson Building,Submitted,350 N. Clark St.,60654,,,NEAR NORTH SIDE,Office,"111,033",1912,1,,32,"9,668,120.4","2,457,372.2",,,,109.2,296.7,112.5,303.5,"1,912.6",17.2,41.88857037,-87.63107707,"(41.88857037, -87.63107707)"
2018,130442,210-220 N Green,Submitted,210 N Green Street,60607,4.0,false,NEAR WEST SIDE,Office,"92,741",1893,1,"1,659",79,"5,331,891.5","133,300",,,,58.9,162.5,58.9,162.5,894.1,9.6,41.88630274,-87.649191,"(41.88630274, -87.649191)"
2016,157919,North Park Village Apartments,Submitted,"5801 N. Pulaski Rd., Bldg. H",60646,,,NORTH PARK,Residential Care Facility,"275,000",1913,1,,,"8,468,010.8","10,699,571.3",,,,69.7,137.5,69.7,137.5,"2,129.1",7.7,41.98580055,-87.72846172,"(41.98580055, -87.72846172)"
2016,160280,"The Ritz-Carlton Residences, Chicago, Magnificent Mile",Submitted,118 E Erie Street,60611,,,NEAR NORTH SIDE,Multifamily Housing,"326,409",2012,1,,13,"10,100,035.2","13,861,699.7",,"12,988,283.7",,113.2,181.5,114.5,184.5,,,41.89444458,-87.62463695,"(41.89444458, -87.62463695)"
2016,250124,Albert Merritt Billings,Submitted,950 East 59th St.,60637,,,HYDE PARK,Office,"488,322",1927,1,,81,"19,808,246.6",,"18,363,719.7",,,78.2,172.6,83.1,178.5,"4,870.4",10,41.787764,-87.602285,"(41.787764, -87.602285)"
2017,160270,Grand Kingsbury LLC,Submitted,520 N. Kingsbury,60654,,,NEAR NORTH SIDE,Multifamily Housing,"497,185",2007,1,,37,"14,747,077","28,901,087",,,,87.8,154.2,92.5,158.7,"4,261.7",8.6,41.89101955,-87.64008503,"(41.89101955, -87.64008503)"
2018,104385,6001 N KENMORE AVE,Not Submitted,6001 N KENMORE AVE,60660,0.0,false,EDGEWATER,,"53,334",,1,,,,,,,,,,,,,,41.99090057,-87.66660744,"(41.99090057, -87.66660744)"
2016,124236,830 North Michigan,Submitted,830 N Michigan,60611,,,NEAR NORTH SIDE,Enclosed Mall,"126,000",1966,1,,,"16,199,442.4",,,,,128.6,403.7,128.6,403.7,"2,985.9",23.7,41.89783892,-87.62465018,"(41.89783892, -87.62465018)"
2018,175889,The Scott Condominium Association,Submitted,60-70 E. Scott St.,60610,4.0,false,NEAR NORTH SIDE,Multifamily Housing,"80,419",1918,2,"1,673",100,"857,381","1,433,322",,,,28.5,48.6,28.2,47.7,218.8,2.7,41.9037528,-87.63558845,"(41.9037528, -87.63558845)"
2018,252071,Library Towers Condo Association,Submitted,520 S State Street,60605,3.5,false,LOOP,Multifamily Housing,"363,761",2008,1,"7,645",71,"7,888,810.1","16,655,161.8",,,,67.5,108.8,65.5,105.6,"2,197.1",6,41.87510719,-87.6279746,"(41.87510719, -87.6279746)"
2017,129303,03441-Ashland & Wellington,Submitted,2940 North Ashland,60657,,,LAKE VIEW,Supermarket/Grocery Store,"74,182",1982,1,,73,"12,163,586","3,860,200",,,,216,569.5,220.5,572.4,"2,454",33.1,41.93553968,-87.66854739,"(41.93553968, -87.66854739)"
2018,252319,Lakeside Terrace (7425 S. South Shore Dr.),Submitted,7425 S. South Shore Dr.,60649,1.0,false,SOUTH SHORE,Multifamily Housing,"55,352",1926,1,"5,746",6,"438,257.8","10,925,258.1",,,,205.3,229.4,209.1,233.4,653.2,11.8,41.76149298,-87.55802925,"(41.76149298, -87.55802925)"
2017,115376,Conservancy at North Park Condo Assoc IV,Submitted,3950 W. Bryn Mawr Ave.,60659,,,NORTH PARK,Multifamily Housing,"54,096",1995,1,,95,"836,827","2,487,229",,,,61.4,96.9,65.7,100.5,286.8,5.3,41.99046172,-87.70620782,"(41.99046172, -87.70620782)"
2017,251351,Owens-CPS,Submitted,11445 S State St,60628,,,ROSELAND,K-12 School,"75,744",1980,1,,6,"3,441,234","4,936,456",,,,110.6,211.1,120.4,225.5,898.5,11.9,41.68572209,-87.62254397,"(41.68572209, -87.62254397)"
2015,251417,Chalmers-CPS,Submitted,2745 W Roosevelt Rd,60608,,,NORTH LAWNDALE,K-12 School,"68,184",1963,1,,10,"2,890,483","3,211,470",,,,89.5,182.6,92.9,186.2,751,11,41.86604466,-87.695468210000001,"(41.86604466, -87.69546821)"
2016,101549,Chicago Board Options Exchange,Submitted,400 South LaSalle Street,60605,,,LOOP,Financial Office,"348,589",1983,1,,66,"63,902,460.9",,,,,183.3,575.6,185.5,582.4,"11,778.6",33.8,41.87646435,-87.63221179,"(41.87646435, -87.63221179)"
2018,251602,Otoole Elementary -CPS,Exempt,6550 S Seeley Ave,60636,,true,WEST ENGLEWOOD,,"96,700",,1,854,,,,,,,,,,,,,41.7745103,-87.67580793,"(41.7745103, -87.67580793)"
2016,172627,St. Paul House,Submitted,3800 N Califoria,60618,,,IRVING PARK,Senior Care Community,"119,280",1920,1,,3,"6,566,881.9","10,850,343.5",,,,146,268.4,155.8,273.9,"1,786.7",15,41.95061647,-87.69877898,"(41.95061647, -87.69877898)"
2016,160270,Grand Kingsbury LLC,Submitted,520 N. Kingsbury,60654,,,NEAR NORTH SIDE,Multifamily Housing,"497,185",2007,1,,42,"15,584,883.2","27,035,586.4",,,,85.7,155.5,91.3,159.4,"4,308.6",8.7,41.89101955,-87.64008503,"(41.89101955, -87.64008503)"
2018,251705,Yale -CPS,Exempt,7025 S Princeton Ave,60621,,true,GREATER GRAND CROSSING,,"61,667",,1,"3,793",,,,,,,,,,,,,41.76677134,-87.63188829,"(41.76677134, -87.63188829)"
2014,100447,211 E. Chicago Ave.,Submitted,211 E. Chicago Ave.,60611,,,NEAR NORTH SIDE,Office,"394,230",1965,1,,85,"15,403,962","17,932,947",,,,85,171,81,167,"4,047",10.27,41.89644968,-87.62256575,"(41.89644968, -87.62256575)"
2017,158654,The Belden Stratford,Submitted,2300 North Lincoln Park West,60614,,,LINCOLN PARK,Multifamily Housing,"269,400",1923,1,,8,"10,854,500","16,202,533",,,,100.4,189.7,106.1,194.3,"2,867.5",10.6,41.92385037,-87.63654356,"(41.92385037, -87.63654356)"
2016,160368,River Bank Lofts Condominium Association,Submitted,550 N. Kingsbury St.,60610,,,NEAR NORTH SIDE,Multifamily Housing,"257,529",1905,1,,91,"4,629,753","5,434,619.3",,,,39.1,78.6,41.2,80,"1,142",4.4,41.89198248,-87.6407554,"(41.89198248, -87.6407554)"
2018,101798,HEADQUARTERS Q12380,Submitted,225 W. RANDOLPH,60606,3.0,false,LOOP,Office,"976,496",1968,1,"6,999",58,"36,584,590","55,481,931.2",,"18,603,526",,113.3,181.9,110.8,178.2,,,41.88411639,-87.63478478,"(41.88411639, -87.63478478)"
2018,125763,Kmart,Exempt,7050 S Pulaski Rd,60629,,true,WEST LAWN,,"96,268",,1,"3,832",,,,,,,,,,,,,41.76348715,-87.72390353,"(41.76348715, -87.72390353)"
2018,106221,534 West Stratford,Submitted,532 - 536 West Stratford Place,60657,4.0,false,LAKE VIEW,Multifamily Housing,"158,002",1926,1,"3,314",93,"1,266,882.4","9,743,511.6",,,,69.7,87.2,70.4,88,728.3,4.6,41.9398511,-87.65844752,"(41.9398511, -87.65844752)"
2016,251619,Bouchet Elem-CPS,Submitted,7355 S Jeffrey Blvd,60649,,,SOUTH SHORE,K-12 School,"141,329",1903,1,,29,"3,875,830.7","8,638,573.5",,,,88.5,150.3,98.4,163.8,"1,173.2",8.3,41.76125742,-87.57572455,"(41.76125742, -87.57572455)"
2017,251866,Chicago Bulls College Prep,Submitted,2040 W Adams,60612,,,NEAR WEST SIDE,K-12 School,"115,289",1905,1,,84,"3,194,103","4,400,028",,,,65.9,127.1,,,824.3,7.1,41.87909335,-87.67841947,"(41.87909335, -87.67841947)"
2015,160445,Cobbler Square,Submitted,1350 N Wells St,60610,,,NEAR NORTH SIDE,Multifamily Housing,"253,620",1980,7,,97,"4,072,672","9,006,023",,,,51.6,87.7,53.4,89.6,"1,297",5.0999999999999996,41.90706428,-87.635039860000006,"(41.90706428, -87.63503986)"
2015,251332,Ray Meyer Fitness and Recreation Center,Submitted,2235 N. Sheffield,60615,,,LINCOLN PARK,College/University,"117,435",1999,1,,,"6,736,830","10,170,155",,,,144,271.10000000000002,146.80000000000001,272.60000000000002,"1,894",16.100000000000001,41.922656000000003,-87.653447,"(41.922656, -87.653447)"
2016,160412,Baumhart Hall-ID#160412,Submitted,26 E Pearson,60611,,,NEAR NORTH SIDE,Residence Hall/Dormitory,"246,327",2006,1,,73,"7,578,584.3","9,256,299.8",,,,68.3,136.1,72.4,138.5,"1,888.5",7.7,41.89756642,-87.62726075,"(41.89756642, -87.62726075)"
2017,160325,G & A Senior Residence at Eastgate Village,Submitted,300 E. 26th street,60616,,,NEAR SOUTH SIDE,Multifamily Housing,"104,388",2009,1,,93,"894,928","5,775,247",,,,63.9,85,68.5,89.8,472.2,4.5,41.84603122,-87.6203649,"(41.84603122, -87.6203649)"
2018,254096,350 W Belden,Submitted,350 W Belden Ave,60614,4.0,false,Lincoln Park,Multifamily Housing,"140,220",1955,1,"2,853",94,"2,652,301.1","2,626,100.1",,,,37.6,72.6,38,73.1,580.7,4.1,41.9217371,-87.65392,"(41.9217371, -87.65392)"
2017,158095,O'Hare Plaza II,Submitted,8755 W. Higgins Road,60631,,,OHARE,Office,"256,010",1969,1,,81,"13,628,265",,,"17,791,010",,122.7,236.6,124.9,243.6,"3,457.4",13.5,41.98655423,-87.84550445,"(41.98655423, -87.84550445)"
2016,260150,Cummings Life Science Center,Submitted,920 E. 58th St.,60637,,,HYDE PARK,Laboratory,"172,408",1973,1,,,"44,552,394.7",,"52,727,039.9",,,564.2,"1,179.3",569.2,"1,174.9","11,712.9",67.9,41.78987998,-87.60276375,"(41.78987998, -87.60276375)"
2016,242264,Malibu East Condominium,Submitted,6033 N Sheridan Rd,60660,,,EDGEWATER,Multifamily Housing,"987,600",1972,1,,52,"41,197,443.4",,,,,41.7,131,43.9,137.8,"7,593.6",7.7,41.9919241,-87.65476923,"(41.9919241, -87.65476923)"
2017,252268,Heritage Woods of Chicago,Submitted,2800 West Fulton,60612,,,EAST GARFIELD PARK,Senior Care Community,"73,518",2000,1,,18,"2,857,525","4,890,713",,,,105.4,191.9,112.5,199.3,788.1,10.7,41.88654749,-87.69695112,"(41.88654749, -87.69695112)"
2015,251528,Oglesby-CPS,Submitted,7646 S Green St,60620,,,AUBURN GRESHAM,K-12 School,"77,140",1907,1,,60,"1,294,661","4,361,624",,,,73.3,112.1,78.099999999999994,117.4,492,6.4,41.75480348,-87.646002820000007,"(41.75480348, -87.64600282)"
2018,151835,C0500LAR (27945),Submitted,500 S LARAMIE,60644,2.0,false,AUSTIN,Multifamily Housing,"50,000",1929,1,"1,247",45,"595,373.5","4,482,901.8",,,,101.6,127.5,97.5,123.2,337.2,6.7,41.88039405,-87.75826967,"(41.88039405, -87.75826967)"
2018,250082,Armour Square Apartments,Submitted,3120-3250 s. Wentworth Ave,60609,2.5,false,ARMOUR SQUARE,Multifamily Housing,"313,167",1970,4,"4,928",55,"4,333,666.5","28,619,959",,,,105.2,134.7,102.4,131.2,"2,241.1",7.2,41.83768003,-87.631691,"(41.83768003, -87.631691)"
2018,159659,3130 N. Lake Shore Apartments,Submitted,3130 N. Lake Shore Drive,60657,2.0,false,LAKE VIEW,Multifamily Housing,"236,406",1958,1,"7,042",46,"4,513,472.1","21,130,983.4",,,,108.5,147.3,109,147.9,"1,873.2",7.9,41.93859162,-87.63854993,"(41.93859162, -87.63854993)"
2017,124236,830 North Michigan,Submitted,830 N Michigan,60611,,,NEAR NORTH SIDE,Enclosed Mall,"126,000",1966,1,,,"15,577,128",,,,,123.6,388.2,122.7,385.2,"2,880.1",22.9,41.89783892,-87.62465018,"(41.89783892, -87.62465018)"
2016,119504,The Promenade Condominium Association,Submitted,1201 W Adams,60607,,,NEAR WEST SIDE,Multifamily Housing,"84,000",2001,1,,20,"4,229,361.7","4,269,609.2",,,,101.2,211.5,104.6,212,"1,006.3",12,41.87879651,-87.6574532,"(41.87879651, -87.6574532)"
2016,251634,Calmeca Fine-CPS,Submitted,3456 W 38th Street,60632,,,BRIGHTON PARK,K-12 School,"108,624",2010,1,,42,"4,941,377.8","1,540,834.6",,,,59.7,157.7,60.8,157.4,992.6,9.1,41.82509374,-87.7114156,"(41.82509374, -87.7114156)"
2015,101838,191 North Wacker,Submitted,191 North Wacker Drive,60606,,,LOOP,Office,"778,325",2003,1,,89,"41,463,784",,,,,53.3,167.3,54.1,170,"8,331",10.7,41.885382559999996,-87.636438490000003,"(41.88538256, -87.63643849)"
2017,157919,North Park Village Apartments,Submitted,"5801 N. Pulaski Rd., Bldg. H",60646,,,NORTH PARK,Residential Care Facility,"275,000",1913,1,,,"8,934,373","10,699,571",,,,71.4,142.9,71.6,143.4,"2,220.2",8.1,41.98580055,-87.72846172,"(41.98580055, -87.72846172)"
2016,251891,Westinghouse-CPS,Submitted,3301 W FRANKLIN BLVD,60624,,,HUMBOLDT PARK,K-12 School,"225,314",1990,1,,20,"12,381,015.2","5,550,006.8",,,,79.6,198.4,81.4,197,"2,576.9",11.4,41.889761,-87.709911,"(41.889761, -87.709911)"
2017,251360,Armour Eleme-CPS,Submitted,950 W 33rd Place,60608,,,BRIDGEPORT,K-12 School,"112,995",2014,1,,93,"1,118,228","2,016,790",,,,27.7,49.8,28.1,50.8,313.9,2.8,41.83408724,-87.65006375,"(41.83408724, -87.65006375)"
2018,160085,The Clare,Submitted,55 E Pearson St.,60611,1.0,false,NEAR NORTH SIDE,Multifamily Housing,"628,040",2008,1,"23,821",1,"35,212,590.6","62,362,255.8",,,,155.4,261.3,155,260.8,"9,170.5",14.6,41.89727458,-87.62635153,"(41.89727458, -87.62635153)"
2017,101507,5148 N Kedzie Ave,Submitted,5148 N Kedzie Ave,60625,,,NORTH PARK,College/University,"113,740",1958,1,,,"4,310,502","20,671,831",,,,219.6,309.8,238.1,329.2,"1,895",16.7,41.97507877,-87.70870589,"(41.97507877, -87.70870589)"
2017,251616,Hanson Park-CPS,Submitted,2301 N Central Ave,60639,,,BELMONT CRAGIN,K-12 School,"132,816",1959,1,,91,"1,804,924","6,168,474",,,,60,91.4,65.5,98.4,661.4,5,41.922252,-87.765857,"(41.922252, -87.765857)"
2015,251529,Lovett Eleme-CPS,Submitted,6333 W Bloomingdale Ave,60639,,,AUSTIN,K-12 School,"85,200",1927,1,,51,"1,418,738","5,340,524",,,,79.3,118.1,84.5,123.5,569,6.7,41.912785999999997,-87.78313,"(41.912786, -87.78313)"
2015,138872,Windy City Fieldhouse,Submitted,2367 West Logan Blvd,60647,,,LOGAN SQUARE,Other - Recreation,"58,004",1997,1,,,"2,111,608","1,921,000",,,,69.5,149.1,72.400000000000006,151.9,526,9.1,41.928926519999997,-87.687323919999997,"(41.92892652, -87.68732392)"
2015,174126,Pete's 118th,Submitted,3454 3620 E. 118th Street,60617,,,HEGEWISCH,Supermarket/Grocery Store,"54,000",1980,1,,50,"9,731,768","5,330,200",,,,278.89999999999998,669.5,290.89999999999998,679.1,"2,238",41.5,41.680950000000003,-87.535551999999996,"(41.68095, -87.535552)"
2016,175383,Chicago Metropolitan Housing Development Corporation,Submitted,5152-5178 S. King Dr.,60615,,,WASHINGTON PARK,Multifamily Housing,"58,656",1915,1,,65,"382,788.9","4,273,495.3",,,,79.4,97,88.2,106,297.5,5.1,41.80224043,-87.60332678,"(41.80224043, -87.60332678)"
2015,159421,Lake Meadows 7,Submitted,400 E. 33rd Street,60616,,,DOUGLAS,Multifamily Housing,"303,979",1956,1,,18,"2,290,619","44,404,460",,,,153.6,177,161.5,185.3,"2,819",9.3000000000000007,41.835214069999999,-87.616175040000002,"(41.83521407, -87.61617504)"
2016,173632,The Chicago Building,Submitted,7 West Madison Street,60603,,,LOOP,Residence Hall/Dormitory,"104,965",1904,1,,,"3,106,181.1","5,478,800",,"1,558,080",,96.6,162.6,101,167.3,978.7,9.3,41.88201315,-87.62821922,"(41.88201315, -87.62821922)"
2017,159573,The Patricians,Submitted,401 - 411 W. Fullerton Parkway,60614,,,LINCOLN PARK,Multifamily Housing,"189,852",1927,1,,48,"3,378,887","18,077,196",,,,113,155.9,122.7,166.1,"1,584.9",8.3,41.92527418,-87.63936489,"(41.92527418, -87.63936489)"
2017,242048,3550 N Lake Shore Drive,Submitted,3550 N Lake Shore Dr.,60657,,,LAKE VIEW,Multifamily Housing,"683,035",1962,1,,74,"12,986,041","38,562,000",,,,75.5,119,80.6,124.4,"4,449.3",6.5,41.94795804,-87.64383164,"(41.94795804, -87.64383164)"
2018,101765,77 West Wacker Drive,Submitted,77 W. Wacker Drive,60601,4.0,false,LOOP,Office,"1,139,848",1992,1,"17,638",62,"64,710,627.2",,,,,56.8,159,56.3,157.6,"10,765.5",9.4,41.88651883,-87.630542,"(41.88651883, -87.630542)"
2018,251619,Bouchet Elem-CPS,Submitted,7355 S Jeffrey Blvd,60649,1.0,false,SOUTH SHORE,K-12 School,"141,329",1903,1,852,25,"4,301,078.5","8,950,018.5",,,,93.8,151.7,91.3,148.4,"1,190.9",8.4,41.76125742,-87.57572455,"(41.76125742, -87.57572455)"
2018,157767,Roosevelt Hi-CPS,Submitted,3436 W WILSON AVE,60625,3.0,false,ALBANY PARK,K-12 School,"319,900",1927,1,"8,752",69,"5,521,441.7","17,637,565.3",,,,72.4,106.2,71.5,105.4,"1,855.4",5.8,41.96501325,-87.71451268,"(41.96501325, -87.71451268)"
2017,111724,Clybourn Lofts Condominium Association,Submitted,1872 N Clybourn Ave,60642,,,LINCOLN PARK,Multifamily Housing,"118,326",1983,1,,76,"2,751,447","3,363,639",,,,51.7,102.9,54.6,108,687.4,5.8,41.92201051,-87.65461957,"(41.92201051, -87.65461957)"
2015,101567,The Monadnock Building,Submitted,53 W. Jackson Blvd,60604,,,LOOP,Office,"496,749",1890,1,,98,"9,459,384","12,548,040",,,,44.3,86.3,46.1,87.7,"2,567",5.2,41.877524340000001,-87.629552899999993,"(41.87752434, -87.6295529)"
2017,157618,Burnham Station Condominium Association,Submitted,61 W. 15th St.,60605,,,NEAR SOUTH SIDE,Multifamily Housing,"125,000",2000,1,,45,"4,174,988","3,878,916",,,,64.4,137.5,67.8,141.9,978,7.8,41.86107878,-87.62996839,"(41.86107878, -87.62996839)"
2018,175978,451-BRE Rook SH Autumn Green Midway Villiage LLC,Submitted,6700 S. Keating,60629,3.5,false,WEST LAWN,Senior Care Community,"120,000",2017,1,,76,"3,913,151.1","5,209,600.4",,,,76,136.9,74.9,135.1,927.7,7.7,41.77517105,-87.71389848,"(41.77517105, -87.71389848)"
2016,100211,73 East Lake,Submitted,73 E Lake St,60601,,,LOOP,Multifamily Housing,"298,552",2014,1,,27,"12,480,031.5","15,143,041.8",,,,92.5,184.5,97.2,189.5,"3,104.7",10.4,41.885241,-87.62546943,"(41.885241, -87.62546943)"
2018,254362,Fox Ford Lincoln Midwest,Submitted,2501 N Elston Avenue,60647,3.0,false,Logan Square,Automobile Dealership,"146,000",2015,1,"1,077",,"7,307,613.5","5,852,518.2",,,,90.1,182.2,87.2,176.7,"1,526.6",10.5,41.91723891,-87.68490143,"(41.91723891, -87.68490143)"
2016,171886,North & Talman Elderly Apartments,Submitted,1600 N Talman,60647,,,WEST TOWN,Multifamily Housing,"60,000",2008,1,,84,"1,202,145.4","2,194,194",,,,56.6,97.7,60.4,101.6,319.5,5.3,41.92075046,-87.70152825,"(41.92075046, -87.70152825)"
2017,164517,Saint Vincent Center,Submitted,721 N Lasalle Street,60654,,,NEAR NORTH SIDE,Office,"94,254",1926,1,,55,"4,323,369","7,960,221",,,,130.3,232.7,140.3,243.9,"1,222.2",13,41.89549864,-87.63263573,"(41.89549864, -87.63263573)"
2017,137157,LZ Products,Submitted,2121 W 21st Street,60608,,,LOWER WEST SIDE,Wholesale Club/Supercenter,"72,000",1900,1,,92,"576,239","1,062,834",,,,22.8,40.6,24.6,42.6,163,2.3,41.85370711,-87.67932199,"(41.85370711, -87.67932199)"
2018,158431,600 North Michigan Avenue,Submitted,600 N Michigan,60611,1.0,false,NEAR NORTH SIDE,Retail Store,"209,374",1996,1,"15,295",,"35,685,220.9","13,894,400",,,,236.8,546.9,235,541.3,"6,674.7",31.9,41.89293179,-87.62488221,"(41.89293179, -87.62488221)"
2015,156549,601 South LaSalle,Submitted,601 South LaSalle Street,60605,,,LOOP,Office,"80,000",1917,1,,66,"5,345,444",,,,,66.8,209.8,68.099999999999994,213.8,"1,074",13.4,41.874215669999998,-87.631419039999997,"(41.87421567, -87.63141904)"
2016,102362,"Ravenswood Associates, LLC",Submitted,1945 W. Wilson Ave.,60640,,,LINCOLN SQUARE,Office,"68,000",1978,1,,73,"3,081,237.3","1,709,737.6",,,,70.5,168.7,71.9,166.3,658.7,9.7,41.96509261,-87.67778064,"(41.96509261, -87.67778064)"
2018,251556,"Jenner, Edward Elementary Academy Of The Arts -CPS",Exempt,1119 N Cleveland Ave,60610,,true,NEAR NORTH SIDE,,"96,164",,1,358,,,,,,,,,,,,,41.9021714,-87.64082064,"(41.9021714, -87.64082064)"
2018,238355,Museum Park Tower 1 Condominium Association,Submitted,1322 S. Prairie Ave,60605,2.5,false,NEAR SOUTH SIDE,Multifamily Housing,"279,381",2001,1,"12,043",32,"9,299,399.2","19,843,647.1",,,,104.3,167.8,105.4,168.4,"2,601.1",9.3,41.86523298,-87.62167499,"(41.86523298, -87.62167499)"
2018,101883,Omni Hotel,Submitted,676 N Michigan Ave,60611,1.0,false,NEAR NORTH SIDE,Hotel,"440,281",1990,1,"20,059",1,"79,656,347.3","7,899,580.3",,,,198.9,525.4,198.9,525.4,"13,671.5",31.1,41.89472393,-87.62492502,"(41.89472393, -87.62492502)"
2018,172343,T2613 - Chicago Division,Submitted,1200 N Larrabee St,60610,2.5,false,NEAR NORTH SIDE,Retail Store,"190,487",2013,1,"1,381",56,"10,003,349.4","5,067,100",,,,79.1,175,77.4,172.3,"1,933.3",10.1,41.903766,-87.64324,"(41.903766, -87.64324)"
2018,252240,Presence Center for Advanced Care,Submitted,331 W Surf Street,60657,,true,LAKE VIEW,Medical Office,"239,957",2015,1,"4,621",,"15,981,245","22,063,080",,,,158.5,283,158.8,283.3,"3,830.6",16,41.93430593,-87.6384177,"(41.93430593, -87.6384177)"
2017,252267,Paper Place Lofts,Submitted,801 South Wells Street,60607,,,LOOP,Multifamily Housing,"139,879",1915,1,,28,"5,126,997","5,018,800",,,,72.5,152.8,75.9,156.9,"1,214.5",8.7,41.87175238,-87.6335235,"(41.87175238, -87.6335235)"
2018,175493,4812 4846 N CLARK ST,Not Submitted,4812 4846 N CLARK ST,60640,0.0,false,UPTOWN,,"191,541",,1,"2,122",,,,,,,,,,,,,41.97223008,-87.6645957,"(41.97223008, -87.6645957)"
2017,103962,Fountainbleau CAMBRIDGE Property,Submitted,2828 N. Cambridge,60657,,,LAKE VIEW,Multifamily Housing,"75,300",1973,1,,97,"245,295","5,132,912",,,,71.4,81.8,77.3,88,318,4.2,41.9398511,-87.65844752,"(41.9398511, -87.65844752)"
2017,160305,550 St. Clair Condominium,Submitted,550 N St. Clair St,60611,,,NEAR NORTH SIDE,Multifamily Housing,"170,645",2008,1,,69,"4,137,081","9,966,194",,,,82.6,137.4,88.2,143.3,"1,294.3",7.6,41.89205598,-87.62271597,"(41.89205598, -87.62271597)"
2017,251732,Eberhart Ele-CPS,Submitted,3400 W 65th Place,60629,,,CHICAGO LAWN,K-12 School,"164,398",1906,1,,51,"4,880,637","4,838,685",,,,59.1,124.1,64.7,130,"1,159.4",7.1,41.77474971,-87.70858342,"(41.77474971, -87.70858342)"
2016,242586,The Pearson,Submitted,250 East Pearson St,60611,,,NEAR NORTH SIDE,Multifamily Housing,"301,184",2003,1,,1,"18,851,156.7","17,891,946.1",,,,122,258.9,129.4,270.9,"4,425",14.7,41.89789468,-87.61880577,"(41.89789468, -87.61880577)"
2018,160355,1133 N. Dearborn Apartments,Submitted,1133 N. Dearborn,60610,3.0,false,NEAR NORTH SIDE,Multifamily Housing,"387,600",1992,1,"9,805",63,"9,059,324","18,413,007.3",,,,70.9,115.3,71.1,114.4,"2,485.2",6.4,41.90283681,-87.62951363,"(41.90283681, -87.62951363)"
2017,175462,C074179T (22021),Submitted,741 E 79TH ST,60619,,,CHATHAM,Multifamily Housing,"60,200",1929,1,,,"1,003,650","6,983,983",,,,132.7,174.2,140.8,182.7,556.5,9.2,41.74401302,-87.60549928,"(41.74401302, -87.60549928)"
2016,251873,BackOfTheYrd-CPS,Submitted,2111 W 47th St,60609,,,NEW CITY,K-12 School,"212,285",2012,1,,83,"8,713,930.7",,,,,41,128.9,41,128.9,"1,606.2",7.6,41.808463,-87.677641,"(41.808463, -87.677641)"
2017,251490,Dulles-CPS,Submitted,6311 S Calumet Ave,60637,,,GREATER GRAND CROSSING,K-12 School,"70,786",1962,1,,24,"1,762,016","6,872,728",,,,122,180.1,138.3,197.3,690.8,9.8,41.77996587,-87.61673927,"(41.77996587, -87.61673927)"
2016,254262,Sunnycourt Condominiums,Submitted,906-934 W Sunnyside,60640,,,Uptown,Multifamily Housing,"75,600",1926,1,,34,"798,150.4","7,347,810.7",,,,107.8,135.2,117.4,144.2,537.4,7.1,41.9726457,-87.66491,"(41.9726457, -87.66491)"
2016,251294,954 W Washington Blvd,Submitted,954 W Washington Blvd,60607,,,NEAR WEST SIDE,Office,"140,000",1889,1,,100,"2,364,718.7","1,948,700.2",,,,30.8,67.7,32.2,67.8,539.4,3.9,41.88352088,-87.65172304,"(41.88352088, -87.65172304)"
2018,251474,Audubon Elem-CPS,Submitted,3500 N Hoyne Ave,60618,2.5,false,NORTH CENTER,K-12 School,"72,489",1893,1,"1,607",55,"1,194,634.3","4,797,875.4",,,,82.7,115.6,78.9,111.7,453.6,6.3,41.94541394,-87.68145401,"(41.94541394, -87.68145401)"
2014,100730,Congress Center,Submitted,525 W. Van Buren,60607,,,NEAR WEST SIDE,Office,"527,238",2000,1,,82,"27,485,697",,,,,52,164,50,158,"5,522",10.47,41.87630749,-87.6401831,"(41.87630749, -87.6401831)"
2016,238973,Winston Towers One,Submitted,6933 N Kedzie Ave,60645,,,WEST RIDGE,Multifamily Housing,"326,000",1965,1,,67,"6,838,490.8","19,412,870",,,,80.5,128.4,84.3,130.5,"2,291.6",7,42.00719264,-87.70847919,"(42.00719264, -87.70847919)"
2018,242238,535 North Michigan,Submitted,535 North Michigan Avenue,60611,4.0,false,NEAR NORTH SIDE,Multifamily Housing,"448,591",1962,1,"21,896",69,"16,156,253.3","10,071,954.2",,,,58.5,124.4,57.8,122.7,"3,222.8",7.2,41.89197136,-87.62412358,"(41.89197136, -87.62412358)"
2017,235739,1000 Condominium Association,Submitted,1000 North Lake Shore Plaza,60611,,,NEAR NORTH SIDE,Multifamily Housing,"399,022",1964,1,,7,"14,855,138","26,790,544",,,,104.4,187.4,110.4,194.3,"4,169.6",10.4,41.900978,-87.624275,"(41.900978, -87.624275)"
2016,173930,Snell-Hitchcock,Submitted,5709 Ellis Avenue,60637,,,HYDE PARK,Residence Hall/Dormitory,"51,442",1902,1,,7,"4,950,085.2","7,176","3,032,079.6",,,155.3,373.2,163.2,382.7,"1,114.1",21.7,41.78046327,-87.6053081,"(41.78046327, -87.6053081)"
2017,251992,United Airlines Reservation Center,Submitted,11555 W Touhy Ave,60666,,,OHARE,Office,"122,360",1989,1,,12,"18,118,205","8,348,856",,,,216.3,536.6,219.7,540.1,"3,793.4",31,42.008383,-87.905562,"(42.008383, -87.905562)"
2018,101901,Hotel Allegro,Submitted,171 W Randolph St,60601,2.5,false,LOOP,Hotel,"383,168",1926,1,,34,"12,074,331","46,434,205",,"16,477,218.9",,195.7,254.6,194.2,253,"5,343.4",13.9,41.8841082,-87.63304764,"(41.8841082, -87.63304764)"
2014,101943,303 West Madison,Submitted,303 West Madison,60606,,,LOOP,Office,"345,450",1987,1,,67,"26,154,611",,,,,76,238,73,228,"5,255",15.2,41.88155993,-87.63556015,"(41.88155993, -87.63556015)"
2015,165439,Spertus Institute for Jewish Learning and Leadership,Submitted,610 S. Michigan Ave,60605,,,LOOP,College/University,"142,776",2007,1,,,"8,995,625","149,819",,,,64.099999999999994,198.9,64.099999999999994,198.9,"1,815",12.7,41.874053170000003,-87.624828050000005,"(41.87405317, -87.62482805)"
2017,159276,"Foxboro Properties, LLC",Submitted,6201 S. Emerald,60621,,,ENGLEWOOD,Office,"85,641",1995,1,,76,"4,622,230","785,119",,,,63.1,179.1,64.6,181.1,896.3,10.5,41.770346,-87.643171,"(41.770346, -87.643171)"
2017,254008,(IL290) - Hyde Park Courtway,Submitted,4816-4828 S. Dorchester,60615,,,Kenwood,Multifamily Housing,"69,540",1920,1,,85,"423,436","4,262,004",,,,67.4,83.5,73.4,89.6,304.7,4.4,41.8022432,-87.60352,"(41.8022432, -87.60352)"
2018,175548,"Advocate Center, Chicago Bulls Training Facility",Submitted,15 S. Wood Street,60612,2.0,false,NEAR WEST SIDE,Other,"60,000",2014,1,"1,756",,"4,915,791.2","5,106,886.9",,,,167,318.8,166.6,317.5,"1,089.1",18.2,41.88114492,-87.67169307,"(41.88114492, -87.67169307)"
2018,102323,3515 3525 W FRANKLIN BLVD,Not Submitted,3515 3525 W FRANKLIN BLVD,60624,0.0,false,HUMBOLDT PARK,,"93,000",,1,"1,930",,,,,,,,,,,,,41.8808242,-87.72327934,"(41.8808242, -87.72327934)"
2017,117014,227-Senior Suites-Belmont Cragin,Submitted,6045 West Grand Avenue,60639,,,BELMONT CRAGIN,Senior Care Community,"60,000",1996,1,,38,"1,655,011","4,441,000",,,,101.6,164.3,108.1,171.3,541.9,9,41.92039417,-87.75616669,"(41.92039417, -87.75616669)"
2018,175896,Sheridan Lake,Submitted,6415 N. Sheridan Rd.,60626,2.5,false,ROGERS PARK,Multifamily Housing,"68,271",1968,1,"2,430",56,"1,272,973.9","5,745,243.7",,,,102.8,140.6,104.2,140,516.9,7.6,42.01036185,-87.66829765,"(42.01036185, -87.66829765)"
2015,250055,Von Steuben-CPS,Submitted,5039 N KIMBALL AVE,60625,,,NORTH PARK,K-12 School,"248,453",1928,1,,98,"3,520,836","7,698,691",,,,45.2,77,45.6,77.5,"1,116",4.5,41.972805819999998,-87.712816439999997,"(41.97280582, -87.71281644)"
2018,172783,Fairfax,Submitted,1369 E. Hyde Park Blvd.,60615,4.0,false,HYDE PARK,Multifamily Housing,"120,120",1926,1,"3,413",89,"681,751.7","8,782,599.7",,,,78.8,92.7,79,92.9,579.9,4.8,41.80224043,-87.60332678,"(41.80224043, -87.60332678)"
2018,251551,Murphy Eleme-CPS,Submitted,3539 W Grace St,60618,3.0,false,IRVING PARK,K-12 School,"85,287",1924,1,"1,546",69,"1,694,105.1","3,525,347.3",,,,61.2,99,58.7,96.4,469.1,5.5,41.94963501,-87.71708956,"(41.94963501, -87.71708956)"
2015,158142,Lake Shore Plaza,Submitted,445 East Ohio Street,60611,,,NEAR NORTH SIDE,Multifamily Housing,"470,318",1985,1,,6,"22,022,853","20,209,179",,,,89.8,192.1,93,197.7,"5,498",11.7,41.892240620000003,-87.616272230000007,"(41.89224062, -87.61627223)"
2018,119405,226 W ONTARIO ST,Not Submitted,226 W ONTARIO ST,60654,0.0,false,NEAR NORTH SIDE,,"57,600",,1,,,,,,,,,,,,,,41.89320603,-87.63490429,"(41.89320603, -87.63490429)"
2015,251408,Clissold Ele-CPS,Submitted,2330 W 110th Pl,60643,,,MORGAN PARK,K-12 School,"63,257",2001,1,,68,"1,009,846","2,715,219",,,,58.9,95.2,63,99.8,347,5.5,41.692987000000002,-87.679776000000004,"(41.692987, -87.679776)"
2015,242148,(IL337)- Museum Park Place,Submitted,1841 S Calumet Ave,60616,,,NEAR SOUTH SIDE,Multifamily Housing,"301,111",2006,1,,47,"9,379,711","17,919,800",,,,90.7,160.30000000000001,94,163.9,"2,836",9.4,41.857282789999999,-87.61931697,"(41.85728279, -87.61931697)"
2016,239946,Metropolitan Tower Condo Association,Submitted,310 S Michigan Ave,60604,,,LOOP,Multifamily Housing,"579,393",1924,1,,77,"13,979,127.8","19,599,076",,,,58,111.3,61.8,115.4,"3,617.6",6.2,41.87797296,-87.62488735,"(41.87797296, -87.62488735)"
2015,251964,114 South Racine,Submitted,114 South Racine Avenue,60607,,,NEAR WEST SIDE,Office,"94,925",1920,1,,88,"2,830,983","2,630,399",,,,57.5,122.7,59.4,124.1,709,7.5,41.8796246,-87.65748447,"(41.8796246, -87.65748447)"
2015,251397,Marsh Elemen-CPS,Submitted,9804 S Exchange,60617,,,SOUTH DEERING,K-12 School,"140,770",2006,1,,70,"4,253,696","5,734,072",,,,71,137.69999999999999,75.3,142.19999999999999,"1,159",8.1999999999999993,41.717143999999998,-87.552401000000003,"(41.717144, -87.552401)"
2016,175292,Tree Studios,Submitted,601-623 N. State St.,60654,,,NEAR NORTH SIDE,Retail Store,"55,500",1912,1,,,"1,518,179.6","2,395,499.9",,,,70.5,131.2,73.8,133.3,407.1,7.3,41.89256323,-87.62806371,"(41.89256323, -87.62806371)"
2014,102587,Carver Milli-CPS,Submitted,13100 S Carver Dr,60827,,,RIVERDALE,K-12 School,"298,689",1973,1,,73,"13,623,785",,,,,46,143,45,142,"2,737",9.16,41.657559,-87.592115,"(41.657559, -87.592115)"
2015,251715,National Tea-CPS,Submitted,55 W Cermak Rd,60616,,,NEAR SOUTH SIDE,K-12 School,"156,400",2002,1,,16,"8,174,688","8,846,299",,,,108.8,223.5,112.6,227.4,"2,112",13.5,41.851902889999998,-87.628759700000003,"(41.85190289, -87.6287597)"
2018,125148,Shop & Save Market - Archer,Submitted,5829 S. ARCHER AVE.,60638,2.0,false,GARFIELD RIDGE,Supermarket/Grocery Store,"67,169",1985,1,"2,063",48,"9,062,446","5,386,561.3",,,,215.1,462,214.3,459.8,"1,793.8",26.7,41.79565846,-87.75923253,"(41.79565846, -87.75923253)"
2018,255149,Lincoln Village 2,Submitted,6135-6199 North Lincoln,60659,4.0,false,NORTH PARK,Strip Mall,"57,547",1955,1,223,,"1,157,762.6","2,509,400",,,,63.7,102.1,61.3,99.8,325.9,5.7,41.9936099,-87.69548,"(41.9936099, -87.69548)"
2015,103745,900 North Michigan,Submitted,900 North Michigan,60611,,,NEAR NORTH SIDE,Mixed Use Property,"2,136,748",1989,2,,,"159,134,349","49,405,237",,,,97.6,258.10000000000002,98.9,261.7,"34,596",16.2,41.899208850000001,-87.626506059999997,"(41.89920885, -87.62650606)"
2017,250121,St Bernard Hospital,Submitted,326 West 64th St,60621,,,ENGLEWOOD,Hospital (General Medical & Surgical),"353,240",1904,1,,71,"21,853,816","76,021,641",,,,277.1,420.2,280.7,424,"8,078.5",22.9,41.77854141,-87.6336173,"(41.77854141, -87.6336173)"
2017,253963,Montclare Senior Residences of Avalon Park Phase II,Submitted,1210 E. 78th Street,60619,,,Avalon Park,Multifamily Housing,"102,573",2015,1,,98,"1,577,296","3,683,555",,,,51.3,86,54,88.9,487.3,4.8,41.74401302,-87.60549928,"(41.74401302, -87.60549928)"
2016,252091,1301 East 47th Street,Submitted,1301 East 47th Street,60653,,,KENWOOD,Other - Recreation,"92,000",1999,1,,,"4,023,416.8","3,341,599.8",,,,80.1,175.5,81,178.6,921.4,10,41.80917058,-87.59395543,"(41.80917058, -87.59395543)"
2016,164517,Saint Vincent Center,Submitted,721 N Lasalle Street,60654,,,NEAR NORTH SIDE,Office,"94,254",1926,1,,54,"4,486,790.2","7,996,028.4",,,,132.4,238.6,141.9,244.8,"1,251.7",13.3,41.89549864,-87.63263573,"(41.89549864, -87.63263573)"
2017,250027,"Garfield Park Conservatory, Fieldhouse & Trades",Submitted,300 North Central Park,60624,,,EAST GARFIELD PARK,Other,"299,207",1908,15,,,,,,,,,,,,,,41.88626194,-87.7179624,"(41.88626194, -87.7179624)"
2016,140901,2800 North Orchard Condominium Association,Submitted,2800 N. Orchard St.,60657,,,LAKE VIEW,Multifamily Housing,"96,262",1978,1,,82,"1,968,434","3,889,360.8",,,,60.9,106.6,63.9,107.8,569.4,5.9,41.92201051,-87.65461957,"(41.92201051, -87.65461957)"
2015,101762,RICHARD J. DALEY CENTER,Submitted,50 W. WASHINGTON,60602,,,LOOP,Courthouse,"1,541,766",1965,1,,85,"57,630,147","61,925,508",,,,77.5,159.5,80.5,162.4,"14,868",9.6,41.884097259999997,-87.630196339999998,"(41.88409726, -87.63019634)"
2018,106122,344-358 W. Oakdale Ave.,Submitted,350 W. Oakdale Ave.,60657,1.5,false,LAKE VIEW,Multifamily Housing,"108,991",1950,1,"3,123",33,"1,182,295.5","11,356,178.1",,,,115,139.8,116.5,140.5,799.9,7.3,41.9398511,-87.65844752,"(41.9398511, -87.65844752)"
2017,120344,4039-43 N Ravenswood LLC,Submitted,4043 N Ravenswood,60613,,,LAKE VIEW,Other,"90,000",1910,1,,,"1,565,180","2,414,589",,,,44.2,82.8,47.5,86.2,417.6,4.6,41.9552918,-87.67336725,"(41.9552918, -87.67336725)"
2017,159560,Eugenie Terrace,Submitted,1730 N Clark Street,60614,,,LINCOLN PARK,Multifamily Housing,"621,923",1987,1,,31,"16,928,740","38,670,248",,,,89.4,150.8,94.8,156.4,"5,184",8.3,41.91378263,-87.63384039,"(41.91378263, -87.63384039)"
2015,236382,Randolph Place Residences Condominium Association,Submitted,165 N Canal Street,60606,,,NEAR WEST SIDE,Multifamily Housing,"749,100",1922,1,,98,"12,722,430","19,088,655",,,,42.5,80.099999999999994,43.6,80.8,"3,570",4.8,41.885094160000001,-87.639397509999995,"(41.88509416, -87.63939751)"
2016,158095,O'Hare Plaza II,Submitted,8755 W. Higgins Road,60631,,,OHARE,Office,"256,010",1969,1,,68,"13,719,757.8",,,"29,246,991.2",,167.8,282.5,169.2,286.9,"4,070.2",15.9,41.98655423,-87.84550445,"(41.98655423, -87.84550445)"
2017,240953,(IL247) - River Place on the Park Condo,Submitted,700 N Larrabee,60654,,,NEAR NORTH SIDE,Multifamily Housing,"307,292",2006,1,,61,"7,718,210","15,947,529",,,,77,133.4,81.5,137.7,"2,274.1",7.4,41.89477793,-87.64294673,"(41.89477793, -87.64294673)"
2016,135032,"350, L.L.C.",Submitted,350 N. LaSalle St.,60654,,,NEAR NORTH SIDE,Office,"121,153",1989,1,,53,"10,676,987.4",,,,,88.1,276.7,92,289,"1,968",16.2,41.89198218,-87.63699623,"(41.89198218, -87.63699623)"
2018,255941,MB Ice Arena,Submitted,1801 W. Jackson Blvd.,60612,1.0,false,NEAR WEST SIDE,Ice/Curling Rink,"127,535",2017,1,"5,724",,"13,288,887","1,407,292.4",,,,115.2,303.3,114.9,302.7,"2,285.5",17.9,41.8776449,-87.6741299,"(41.8776449, -87.6741299)"
2018,251644,Beaubien Ele-CPS,Submitted,5025 N Laramie Ave,60630,2.0,false,JEFFERSON PARK,K-12 School,"117,451",1904,1,"1,443",50,"1,699,328.2","9,100,356.1",,,,92,121.9,89.2,118.9,766.1,6.5,41.97209735,-87.7569164,"(41.97209735, -87.7569164)"
2018,251327,Clifton-Fullerton Hall,Submitted,2350 N. Clifton Ave.,60614,4.0,false,LINCOLN PARK,College/University,"92,627",2000,1,"3,957",,"1,224,061.8","5,496,954",,,,72.6,99.3,73.8,100.8,495.6,5.4,41.92507229,-87.65785615,"(41.92507229, -87.65785615)"
2015,251700,Haugan Magne-CPS,Submitted,4540 N Hamlin Ave,60625,,,ALBANY PARK,K-12 School,"137,971",1912,1,,64,"1,807,259","7,116,368",,,,64.7,95.3,66,96.8,741,5.4,41.963725019999998,-87.723664020000001,"(41.96372502, -87.72366402)"
2016,175879,3941 N. Pine Grove Ave.,Submitted,3941 N. Pine Grove,60613,,,LAKE VIEW,Multifamily Housing,"108,120",1928,1,,100,"1,559,243.1","1,314,203.4",,,,26.6,58,27,58.5,357.2,3.3,41.95402016,-87.6620278,"(41.95402016, -87.6620278)"
2015,114008,Shoreline Park Condominium Association,Submitted,4950 N. Marine Drive,60640,,,UPTOWN,Multifamily Housing,"388,924",1953,1,,76,"7,266,008","25,835,254",,,,85.1,128.4,89.1,132.6,"2,832",7.3,41.972758939999999,-87.651575129999998,"(41.97275894, -87.65157513)"
2015,251367,Norwood Park-CPS,Submitted,5900 N Nina Ave,60631,,,NORWOOD PARK,K-12 School,"56,330",1916,1,,24,"2,865,197","1,778,477",,,,82.4,192.9,83,193,670,11.9,41.989250730000002,-87.802664070000006,"(41.98925073, -87.80266407)"
2018,117348,Peterson Plaza Tower,Submitted,5969 North Ravenswood Ave,60660,1.0,false,EDGEWATER,Multifamily Housing,"82,971",1981,1,"3,504",3,"5,995,286.6","1,333,538",,,,88.3,219.2,89.7,222.6,"1,068.2",12.9,41.99090057,-87.66660744,"(41.99090057, -87.66660744)"
2017,127990,California Gardens,Submitted,2829 S. California Blvd.,60608,,,SOUTH LAWNDALE,Senior Care Community,"72,844",1977,1,,12,"4,972,274","9,723,335",,,,201.7,331.3,210.9,339.9,"1,343.7",18.4,41.84064733,-87.69422719,"(41.84064733, -87.69422719)"
2015,165062,Adler Planetarium,Submitted,1300 S. Lake Shore Drive,60605,,,NEAR SOUTH SIDE,Museum,"137,000",1930,1,,,"12,266,611","8,250,500",,,,149.80000000000001,344.4,153.80000000000001,348.6,"2,903",21.2,41.86637151,-87.606609090000006,"(41.86637151, -87.60660909)"
2015,250032,California Park /  McFetridge,Submitted,3843 North California,60618,,,IRVING PARK,Other - Recreation,"107,884",1970,1,,,"6,586,460","8,057,921",,,,135.69999999999999,270.10000000000002,138.5,273,"1,751",16.2,41.951062999999998,-87.698166000000001,"(41.951063, -87.698166)"
2015,158431,600 North Michigan Avenue,Submitted,600 N Michigan,60611,,,NEAR NORTH SIDE,Retail Store,"209,374",1996,1,,,"10,970,467","10,599,817",,,,103,217.7,105.3,220,"2,767",13.2,41.892931789999999,-87.624882209999996,"(41.89293179, -87.62488221)"
2016,160297,Roosevelt Collection,Submitted,150 W Roosevelt Road,60605,,,LOOP,Mixed Use Property,"1,086,996",2009,1,,88,"32,304,642","15,406,999.4",,,,43.9,108.2,45.8,111.9,"6,772.8",6.2,41.86930998,-87.63230603,"(41.86930998, -87.63230603)"
2017,102766,Brandon Shores Condo Association,Submitted,6150 N Kenmore,60660,,,EDGEWATER,Multifamily Housing,"54,000",1962,1,,,"874,198",,,,,,,,,,,41.99090057,-87.66660744,"(41.99090057, -87.66660744)"
2018,120624,2641 West Harrison,Submitted,2641 W. Harrison Street,60612,2.0,false,EAST GARFIELD PARK,Other,"55,754",2007,1,177,,"2,053,938.7","3,172,904.9",,,,93.7,162.9,92.7,161.8,510.2,9.2,41.87340714,-87.69235672,"(41.87340714, -87.69235672)"
2017,254381,Campus North Residential Commons,Submitted,5500 South University Ave,60637,,,Hyde Park,Residence Hall/Dormitory,"419,219",2016,1,,63,"12,227,782","17,578,250",,"12,423,383",,100.7,165.2,102.6,167.3,"3,849.2",9.2,41.78040086,-87.60270024,"(41.78040086, -87.60270024)"
2016,101592,5452 S Ellis,Submitted,5452-5466 S. Ellis Ave,60615,,,HYDE PARK,Multifamily Housing,"51,368",1900,1,,100,"227,392.7","930,479.4",,,,22.5,32.9,22.5,32.9,91.3,1.8,41.80224043,-87.60332678,"(41.80224043, -87.60332678)"
2018,156576,Rice Building,Submitted,815 W Van Buren,60607,4.0,false,NEAR WEST SIDE,Office,"80,610",1910,1,"1,771",88,"911,331.6","3,075,397.5",,,,49.5,71.7,49.8,72.1,315,3.9,41.87638333,-87.64804242,"(41.87638333, -87.64804242)"
2016,252065,280 S. Columbus Dr.,Submitted,280 S. Columbus Dr.,60603,,,LOOP,College/University,"142,063.3",1973,1,,,"7,936,622.5","12,674,324.8",,"4,533,689.1",,177,301,183.2,307.7,"2,375",16.7,41.8787345,-87.62080493,"(41.8787345, -87.62080493)"
2017,100433,Presence SMEMC St Mary Campus,Submitted,2233 West Division St,60622,,,WEST TOWN,Hospital (General Medical & Surgical),"693,154",1976,5,,46,"68,213,694","101,290,586",,,,244.5,462.4,252.7,468.8,"17,992.4",26,41.90251573,-87.68336086,"(41.90251573, -87.68336086)"
2015,251956,Carlson,Submitted,949 E. 58th St.,60637,,,HYDE PARK,Laboratory,"67,021",1927,1,,,"6,978,929",,"24,727,739",,,473.1,770.8,491,792.4,"3,044",45.4,41.789530999999997,-87.602855000000005,"(41.789531, -87.602855)"
2016,173708,2756-64 N. Pine Grove Ave.,Submitted,2756-64 N. Pine Grove Ave.,60642,,,LINCOLN PARK,Multifamily Housing,"133,560",1925,1,,88,"582,653.6","10,055,210.5",,,,79.6,92.7,86.7,100.1,641.5,4.8,41.92201051,-87.65461957,"(41.92201051, -87.65461957)"
2017,159639,00806-Brookdale Lake Shore Drive,Submitted,2960 North Lake Shore Drive,60657,,,LAKE VIEW,Multifamily Housing,"436,435",1988,1,,16,"13,161,944","26,328,697",,,,90.5,158,96.4,164.2,"3,832",8.8,41.93596163,-87.63736893,"(41.93596163, -87.63736893)"
2015,159537,Chicago Magnificent Mile Dbtree,Submitted,300 E. Ohio Street,60611,,,NEAR NORTH SIDE,Hotel,"316,063",1976,1,,40,"19,600,504","13,813,300",,,,105.7,240.6,107.6,244.3,"4,672",14.8,41.892795649999996,-87.619806519999997,"(41.89279565, -87.61980652)"
2018,241405,Kinzie Park Tower Condominium Association,Submitted,501 N. Clinton St.,60654,4.0,false,WEST TOWN,Multifamily Housing,"292,095",1999,1,63,92,"1,979,331.9","21,983,467.7",,,,82,98,82.5,98,"1,496.9",5.1,41.89102115,-87.64219094,"(41.89102115, -87.64219094)"
2018,250144,11 East Adams,Submitted,11 East Adams,60603,1.0,false,LOOP,Office,"161,166",1961,1,"1,717",18,"8,289,590.5","17,715,941.4",,,,161.4,259.4,162.2,260.3,"2,320.1",14.4,41.879474,-87.6273,"(41.879474, -87.6273)"
2018,100002,Clemente Community Academy HS -CPS,Exempt,1147 N Western Ave,60622,,true,WEST TOWN,,"433,342",,1,"14,018",,,,,,,,,,,,,41.90261979,-87.68613497,"(41.90261979, -87.68613497)"
2017,239042,400 North LaSalle Condominium Association,Submitted,400 North LaSalle Drive,60654,,,NEAR NORTH SIDE,Multifamily Housing,"550,599",2002,1,,36,"14,904,943","24,957,860",,,,72.4,132.6,77.4,138.6,"4,081.5",7.4,41.88962593,-87.63339019,"(41.88962593, -87.63339019)"
2018,159647,The Van der Rohe,Submitted,2933 N. Sheridan Road,60657,2.5,false,LAKE VIEW,Multifamily Housing,"193,500",1952,1,"6,989",60,"4,701,330","12,118,000",,,,86.9,133.8,87.1,132.3,"1,425.8",7.4,41.93522966,-87.63890549,"(41.93522966, -87.63890549)"
2016,119689,303 West Erie Street,Submitted,303 W. Erie Street,60654,,,NEAR NORTH SIDE,Office,"65,176",1910,1,,70,"4,390,670.8",,,,,67.4,211.5,69.5,218.1,809.3,12.4,41.89392378,-87.6358118,"(41.89392378, -87.6358118)"
2017,175973,Winchester Hood Garden Homes Trust R-704,Submitted,1940-60 W Hood ave,60660,,,WEST RIDGE,Multifamily Housing,"73,600",1951,1,,20,"1,877,893","7,577,100",,,,128.5,188.2,139.6,199.4,749.7,10.2,41.99090057,-87.66660744,"(41.99090057, -87.66660744)"
2017,251297,Presence St Elizabeth Professional Office Building,Submitted,1431 N Western Avenue,60622,,,WEST TOWN,Medical Office,"71,110",1991,1,,10,"4,259,114","6,929,000",,,,157.3,290.4,165.8,298.3,"1,155.5",16.2,41.907693,-87.687079,"(41.907693, -87.687079)"
2018,121093,Costco #1107 South Loop,Submitted,1430 S. Ashland Ave,60608,4.0,false,NEAR WEST SIDE,Supermarket/Grocery Store,"156,788",2012,1,"6,423",79,"13,694,461.2","15,999,189.9",,,,189.4,351.7,191.1,353.2,"3,128.1",20,41.86202556,-87.66781544,"(41.86202556, -87.66781544)"
2018,171878,Josephinum Academy,Submitted,1501 N. Oakley Blvd.,60622,3.0,false,WEST TOWN,K-12 School,"85,000",1959,1,"2,061",67,"541,808.2","6,342,406.1",,,,81,96.2,81.6,96.8,427,5,41.90876585,-87.68434031,"(41.90876585, -87.68434031)"
2016,161901,Higgins C A-CPS,Submitted,11710 S Morgan St,60643,,,WEST PULLMAN,K-12 School,"51,303",1950,1,,37,"2,022,136.5","2,465,312.4",,,,87.5,174.2,95.2,185.2,503.7,9.8,41.68091744,-87.64744458,"(41.68091744, -87.64744458)"
2018,106046,Inn of Chicago,Submitted,162 E Ohio,60611,1.0,false,NEAR NORTH SIDE,Hotel,"175,000",1927,1,"13,942",6,"14,160,683.7","1,188,817.4",,,,87.7,233.7,,,"2,419",13.8,41.89579275,-87.62247957,"(41.89579275, -87.62247957)"
2018,129963,,Exempt,2290 S Grove Street,60616,,true,ARMOUR SQUARE,,"59,412",,1,,,,,,,,,,,,,,41.8520324,-87.63944223,"(41.8520324, -87.63944223)"
2015,102157,Prudential Plaza,Submitted,130 East Randolph & 180 North Stetson,60601,,,LOOP,Office,"2,751,035",1972,1,,88,"141,676,885","35,406,799",,,,64.400000000000006,175.2,66,177.8,"30,345",11,41.884947490000002,-87.623130160000002,"(41.88494749, -87.62313016)"
2016,172557,T.E. Brown Apartments,Submitted,3601 S. Wells,60609,,,ARMOUR SQUARE,Multifamily Housing,"87,527",1975,1,,,"6,843,339.2","1,136,295.1",,,,91.2,259.1,97.6,278.5,"1,321.7",15.1,41.81195152,-87.65512794,"(41.81195152, -87.65512794)"
2018,244840,235 W. Van Buren Condo Association,Submitted,235 W Van Buren,60607,3.0,false,LOOP,Multifamily Housing,"801,360",2009,1,"27,652",69,"17,827,420.2","44,332,605.8",,"11,740,319.4",,92.2,133.7,92.7,133.7,,,41.87626168,-87.63572182,"(41.87626168, -87.63572182)"
2016,120299,8516-Bucktown,Submitted,2112 N Ashland Ave,60614,,,LOGAN SQUARE,Supermarket/Grocery Store,"80,033",2013,1,,78,"13,083,273.1","6,968,600.1",,,,250.5,604.7,255.2,606.6,"2,781.7",34.8,41.85378308,-87.66645019,"(41.85378308, -87.66645019)"
2016,254327,3125 W Fullerton,Submitted,3125 W Fullerton Avenue,60610,,,Logan Square,Multifamily Housing,"155,000",2007,1,,98,"2,559,624.4","3,980,908.8",,,,42.2,78.8,44.2,80.9,683.2,4.4,41.9172389,-87.6849,"(41.9172389, -87.6849)"
2015,172627,St. Paul House,Submitted,3800 N Califoria,60618,,,IRVING PARK,Senior Care Community,"119,280",1920,1,,2,"6,723,012","10,778,700",,,,146.69999999999999,271.89999999999998,152.30000000000001,276.3,"1,923",16.100000000000001,41.95061647,-87.69877898,"(41.95061647, -87.69877898)"
2018,159936,7130 Cyril Court Apartments,Submitted,7130 S. Cyril Ct.,60649,1.5,false,SOUTH SHORE,Multifamily Housing,"81,140",1929,1,"4,674",36,"1,211,843.5","8,648,310.1",,,,121.5,153.7,123.4,155.7,661,8.1,41.76506128,-87.57735119,"(41.76506128, -87.57735119)"
2018,251276,MWRDGC Main Office Building,Submitted,100 E Erie St,60611,2.5,false,NEAR NORTH SIDE,Office,"95,622",1955,1,"1,329",52,"4,704,714.7","3,369,751.2",,,,84.4,174.8,82.2,171.2,961.7,10.1,41.89416931,-87.62526672,"(41.89416931, -87.62526672)"
2016,250004,Kennedy-King College,Submitted,6301 South Halsted,60621,,,ENGLEWOOD,College/University,"496,817",2007,6,,,"37,628,320.8","51,065,170.1",,,,178.5,345.7,186.4,352.4,"9,669.6",19.5,41.779703,-87.644751,"(41.779703, -87.644751)"
2018,172685,Washington Square-North and Cicero Development LLC,Submitted,4821-4951 West North Avenue,60634,4.0,false,AUSTIN,Retail Store,"180,677",1980,1,"4,655",66,"14,308,150.3","819,145.6",,,,83.7,226.5,83.8,226.6,"2,423.9",13.4,41.9083292,-87.74766344,"(41.9083292, -87.74766344)"
2016,250048,Kennedy High-CPS,Submitted,6325 W 56th St,60638,,,GARFIELD RIDGE,K-12 School,"345,406",1957,1,,77,"9,759,193.5","8,080,460",,,,51.6,113.3,54.1,114.7,"2,228",6.5,41.79020209,-87.77942169,"(41.79020209, -87.77942169)"
2018,162296,Associated Talmud Torahs,Exempt,2828 W Pratt Blvd,60645,,true,WEST RIDGE,,"60,536",,1,755,,,,,,,,,,,,,42.0056073,-87.70120525,"(42.0056073, -87.70120525)"
2016,175850,Whole Foods KBS,Submitted,1550 N. Kingsbury St.,60642,,,NEAR NORTH SIDE,Supermarket/Grocery Store,"120,372",2009,1,,64,"19,907,948.6","17,548,973.8",,,,311.2,672.4,321.7,683.4,"4,601.6",38.2,41.9085638,-87.65280194,"(41.9085638, -87.65280194)"
2016,114858,Scholars Corner Apartments,Submitted,5100-5110 S. Cornell,60615,,,HYDE PARK,Multifamily Housing,"60,000",1925,1,,19,"3,044,783.8","2,396,838.6",,,,90.7,201.3,95.5,214.5,688.5,11.5,41.80224043,-87.60332678,"(41.80224043, -87.60332678)"
2016,101753,222 South Riverside Plaza,Submitted,222 South Riverside Plaza,60606,,,NEAR WEST SIDE,Office,"1,237,455",1971,1,,91,"70,027,751.5","33,305,971.1",,,,83.5,206,87,209.6,"14,676.6",11.9,41.8787371,-87.63898537,"(41.8787371, -87.63898537)"
2017,254010,824 West Superior Condominium Assocation,Submitted,824 W. Superior St.,60642,,,West Town,Multifamily Housing,"66,000",2004,1,,46,"1,912,116","4,517,581",,,,97.4,162.8,107.2,174.1,593.5,9,41.8998309,-87.65764,"(41.8998309, -87.65764)"
2017,160438,155 North Wacker,Submitted,155 N. Wacker,60606,,,LOOP,Office,"1,327,735",2009,1,,91,"65,341,813",,,"18,454,217",,63.1,168.4,64.9,175,"13,053.9",9.8,41.884658,-87.636809,"(41.884658, -87.636809)"
2016,251749,Webster-CPS,Submitted,4055 W ARTHINGTON ST,60624,,,WEST GARFIELD PARK,K-12 School,"60,295",1962,1,,45,"1,247,996.3","3,016,641",,,,70.7,117.5,77.8,124.9,390.3,6.5,41.86972139,-87.72684225,"(41.86972139, -87.72684225)"
2015,123973,Dream Town,Submitted,4032 W. Madison St,60624,,,WEST GARFIELD PARK,Office,"87,000",1926,1,,,"478,064","615,877",,,,12.6,24.7,13.2,25.3,129,1.5,41.881105519999998,-87.726911310000006,"(41.88110552, -87.72691131)"
2017,156609,Wicker Park Commons (Lowes),Submitted,1360 N. Ashland Avenue,60622,,,WEST TOWN,Retail Store,"67,000",1990,1,,69,"3,229,574","1,152,916",,,,65.4,169.4,65.4,169.4,658.4,9.8,41.90656367,-87.66882411,"(41.90656367, -87.66882411)"
2016,101867,125 South Wacker,Submitted,125 S Wacker Drive,60606,,,LOOP,Office,"650,364",1974,1,,88,"30,176,816.4",,,,,46.4,145.7,46.4,145.7,"5,562.2",8.6,41.8797333,-87.63641137,"(41.8797333, -87.63641137)"
2018,251960,Latin School of Chicago Middle School,Submitted,45 W. North BLVD,60610,2.0,false,NEAR NORTH SIDE,K-12 School,"81,509",2007,1,"1,593",17,"4,362,931.2","3,734,580",,,,99.3,198,99.5,197.9,924.2,11.3,41.911172,-87.630192,"(41.911172, -87.630192)"
2017,158780,4001 N. Ravenswood  LLC,Submitted,4001 N Ravenswood,60613,,,LAKE VIEW,Other,"76,800",2008,1,,,"1,689,503","1,389,101",,,,40.1,88.1,42.2,90.6,386.2,5,41.95448307,-87.67334593,"(41.95448307, -87.67334593)"
2018,172055,Catalyst-Maria,Submitted,6727 S. California Avenue,60629,4.0,false,CHICAGO LAWN,K-12 School,"175,970",1951,1,"3,462",96,"1,142,483.6","7,600,204.3",,,,49.7,63.5,50.4,64.3,593.8,3.4,41.77105313,-87.69247557,"(41.77105313, -87.69247557)"
2018,164283,,Exempt,929 E 103RD ST,60628,,true,PULLMAN,,"66,700",,1,466,,,,,,,,,,,,,41.70700381,-87.60042624,"(41.70700381, -87.60042624)"
2016,158644,Astor House,Submitted,1340 N. Astor Street,60610,,,NEAR NORTH SIDE,Multifamily Housing,"206,150",1969,1,,1,"6,713,325","28,215,103.7",,,,169.4,246,171.5,247.1,"2,736",13.3,41.9070422,-87.62817979,"(41.9070422, -87.62817979)"
2016,251248,Skybridge CA,Submitted,737 W. Washington Street,60661,,,NEAR WEST SIDE,Multifamily Housing,"876,000",2003,1,,96,"11,415,900.3","28,020,133.9",,,,45,74.5,48.8,78.4,"3,592.5",4.1,41.883111,-87.646771,"(41.883111, -87.646771)"
2018,118332,840 North Michigan Ave,Submitted,840 North Michigan Ave,60611,1.0,false,NEAR NORTH SIDE,Retail Store,"87,135",1992,1,639,3,"10,323,023.1","16,430",,,,118.7,331.9,118.7,331.9,"1,718.3",19.7,41.89814046,-87.62411775,"(41.89814046, -87.62411775)"
2015,173770,Broadway at Surf,Submitted,2828-2868 N. Broadway,60657,,,LAKE VIEW,Other - Mall,"137,065",1998,1,,,"10,321,600",,,,,75.3,236.5,75.3,236.5,"2,074",15.1,41.934211429999998,-87.644753710000003,"(41.93421143, -87.64475371)"
2016,240518,Museum Pointe CA,Submitted,233 E. 13th Street,60605,,,NEAR SOUTH SIDE,Multifamily Housing,"401,500",2005,1,,62,"10,998,810.6","17,453,390.4",,,,70.9,131.7,76,135.7,"2,954.3",7.4,41.86561463,-87.62099053,"(41.86561463, -87.62099053)"
2018,251611,Mann Elementary -CPS,Exempt,8050 S Chappel Ave,60617,,true,SOUTH CHICAGO,,"136,120",,1,262,,,,,,,,,,,,,41.74856431,-87.57509932,"(41.74856431, -87.57509932)"
2016,101757,IL0000FC-CHICAGO FEDERAL CTR,Submitted,219 S DEARBORN,60604,,,LOOP,Mixed Use Property,"3,176,860",1975,1,,87,"100,136,160.8","90,635,998.5",,,,60.1,128.9,63.4,132.4,"23,271.3",7.3,41.87881863,-87.62895341,"(41.87881863, -87.62895341)"
2017,251591,Chopin Eleme-CPS,Submitted,2450 W Rice St,60622,,,WEST TOWN,K-12 School,"96,895",1917,1,,70,"1,609,465","5,168,018",,,,69.9,108.2,80.6,119.9,572.1,5.9,41.8971019,-87.68854703,"(41.8971019, -87.68854703)"
2015,160372,AMLI River North,Submitted,71 West Hubbard St,60654,,,NEAR NORTH SIDE,Multifamily Housing,"456,710",2013,1,,89,"11,380,941","9,949,551",,,,46.7,101.1,47.8,102.3,"2,815",6.2,41.890020999999997,-87.630345000000005,"(41.890021, -87.630345)"
2017,175725,Irving Park Terrace Condo Association,Submitted,7707 W. Irving Park Road,60634,,,DUNNING,Multifamily Housing,"80,000",1985,1,,99,"771,870","1,966,226",,,,34.2,56.1,36.9,58.9,247.2,3.1,41.94530408,-87.80186746,"(41.94530408, -87.80186746)"
2015,103615,NMH Prentice Womens Hospital,Submitted,250 E Superior Street,60611,,,NEAR NORTH SIDE,Hospital (General Medical & Surgical),"945,000",2007,1,,55,"83,717,207","113,339,996",,,,208.5,404.1,211.2,405.5,"22,840",24.2,41.896272860000003,-87.620881030000007,"(41.89627286, -87.62088103)"
2017,160319,500 Lake Shore Drive,Submitted,500 Lake Shore Drive,60611,,,NEAR NORTH SIDE,Multifamily Housing,"716,899",2013,1,,70,"18,249,543","18,726,217",,,,51.6,107.4,53.6,109.8,"4,368.9",6.1,41.892001,-87.614665,"(41.892001, -87.614665)"
2018,175601,2701 2749 N ELSTON AVE,Not Submitted,2701 2749 N ELSTON AVE,60647,0.0,false,LOGAN SQUARE,,"56,563",,1,48,,,,,,,,,,,,,41.93151197,-87.68673624,"(41.93151197, -87.68673624)"
2018,147855,170 W Polk,Submitted,170 West Polk Street,60605,4.0,false,LOOP,Multifamily Housing,"198,033",2007,1,"3,166",90,"3,644,019.4","7,396,126.1",,,,55.7,90.7,55.5,90.1,999.1,5,41.86863212,-87.62730687,"(41.86863212, -87.62730687)"
2018,158426,Hampton Inn & Suites Chicago - Downtown,Submitted,33 W Illinois,60654,1.0,false,NEAR NORTH SIDE,Hotel,"160,000",1999,1,"11,491",16,"7,932,231.2","18,079,600.4",,,,162.6,257.5,160.2,254.2,"2,279.9",14.2,41.89081283,-87.62934045,"(41.89081283, -87.62934045)"
2016,115692,Bronzeville Associates Senior Apartments Limited Partnership,Submitted,460 E. 41st Street,60653,,,GRAND BOULEVARD,Multifamily Housing,"95,435",1984,1,,62,"2,513,726.2","3,692,978.4",,,,65,123.3,68.8,126.3,659.5,6.9,41.82021138,-87.61246867,"(41.82021138, -87.61246867)"
2016,251721,Payton Colle-CPS,Submitted,1010 N Wells St,60610,,,NEAR NORTH SIDE,K-12 School,"207,870",2001,1,,38,"9,768,255.7","6,027,701.9",,,,76,178,78.3,177.9,"2,120.7",10.2,41.900877,-87.634388,"(41.900877, -87.634388)"
2018,251780,Parish_HolyNameCathedral,Submitted,735 N. State St.,60611,,false,NEAR NORTH SIDE,Other,"193,226",1936,6,"1,125",,"5,472,394.2","18,399,565.4",,,,123.5,179.3,119.9,175.4,"1,887.7",9.8,41.89582933,-87.62812742,"(41.89582933, -87.62812742)"
2018,111083,3506 S STATE ST,Not Submitted,3506 S STATE ST,60609,0.0,false,DOUGLAS,,"140,400",,1,247,,,,,,,,,,,,,41.81195152,-87.65512794,"(41.81195152, -87.65512794)"
2017,175357,Schatz Building,Submitted,610 N Fairbanks Ct,60611,,,NEAR NORTH SIDE,Retail Store,"72,000",1917,1,,,"2,471,837","8,904,449",,,,158,237.7,164.5,244.5,930,12.9,41.8927894,-87.62029137,"(41.8927894, -87.62029137)"
2016,164512,The Salvation Army,Submitted,506 N. Desplaines St,60654,,,WEST TOWN,Office,"64,464",1965,1,,61,"2,916,881.3","4,736,703",,,,118.7,219.2,124,221.6,789.2,12.2,41.89198218,-87.63699623,"(41.89198218, -87.63699623)"
2016,251603,Morrill Math-CPS,Submitted,6011 S Rockwell St,60629,,,CHICAGO LAWN,K-12 School,"99,200",1926,1,,76,"1,793,788","5,692,372.6",,,,75.5,117,83.9,125.9,633,6.4,41.78404995,-87.6883021,"(41.78404995, -87.6883021)"
2016,160375,77 West Huron Street,Submitted,77 West Huron Street,60601,,,NEAR NORTH SIDE,Multifamily Housing,"313,932",1988,1,,54,"9,268,472.8","14,953,866.5",,,,77.2,142.7,81.1,145.8,"2,502.6",8,41.89462133,-87.63070676,"(41.89462133, -87.63070676)"
2016,251872,Goode High S-CPS,Submitted,7651 South Homan Ave,60652,,,ASHBURN,K-12 School,"208,200",2012,1,,55,"10,621,132.9",,,,,51,160.2,52.1,163.5,"1,957.7",9.4,41.753986,-87.707413,"(41.753986, -87.707413)"
2018,256433,Siegel Hall,Not Submitted,3301 South Dearborn,60616,0.0,false,DOUGLAS,College/University,"63,711",1957,1,"4,688",,"3,006,275.7",,"6,902,442",,,155.5,262.5,,,958.4,15,41.842325,-87.62715344,"(41.842325, -87.62715344)"
2018,117174,Mayfair Commons,Submitted,4444 W. Lawrence Ave.,60630,4.0,false,ALBANY PARK,Multifamily Housing,"84,456",1997,1,"3,242",83,"1,325,845.2","5,941,799.6",,,,86.1,117.8,87.3,118.8,536.2,6.3,41.97200414,-87.75756578,"(41.97200414, -87.75756578)"
2016,252040,Kersten Physics Teaching Center,Submitted,5720 South Ellis Avenue,60637,,,HYDE PARK,College/University,"59,287",1985,1,,,"1,673,644.3",,"3,602,274.3","1,446,120.1",,113.4,186.1,115,188.6,623.9,10.5,41.79106711,-87.60164712,"(41.79106711, -87.60164712)"
2016,160184,29 E. Madison LLC,Submitted,29 E. Madison,60602,,,LOOP,Office,"240,076",1904,1,,52,"15,872,170.2","14,391,831.3",,,,126.1,270.5,133.3,276.3,"3,690",15.4,41.88182922,-87.6266992,"(41.88182922, -87.6266992)"
2017,120876,224 North Desplaines,Submitted,224 North Desplaines Street,60661,,,NEAR WEST SIDE,Office,"77,760",1935,1,,73,"3,260,401","2,483,631",,,,73.9,165.2,77.6,172.5,734.7,9.4,41.88650973,-87.64427776,"(41.88650973, -87.64427776)"
2018,172130,Canterbury Court Apartments,Submitted,1220 N State Parkway,60610,2.0,false,NEAR NORTH SIDE,Multifamily Housing,"99,680",1928,1,"4,549",46,"2,189,111.9","9,896,833.8",,,,121.2,165.7,122.8,167.3,889.9,8.9,41.9037528,-87.63558845,"(41.9037528, -87.63558845)"
2014,158868,KCBD,Submitted,900 E. 57th St.,60637,,,HYDE PARK,Laboratory,"376,735",2009,1,,,"65,743,815",,"119,256,719",,,491,929,481,916,"21,127",56.08,41.79207324,-87.60337358,"(41.79207324, -87.60337358)"
2018,254043,St. Vincent de Paul,Submitted,4040 N. Oakley,60618,3.5,false,North Center,Multifamily Housing,"84,762",2007,1,"3,288",78,"1,762,901.9","3,977,391.7",,,,67.7,107.5,68.6,108.4,504.5,6,41.94662098,-87.70269173,"(41.94662098, -87.70269173)"
2015,160142,U.S. Cellular Plaza - 8430 _ Goby LLC,Submitted,8430 West Bryn Mawr Avenue,60631,,,OHARE,Office,"200,150",1981,1,,66,"15,358,361",,,,,76.7,240.9,77.099999999999994,242.2,"3,086",15.4,41.981130999999998,-87.837979000000004,"(41.981131, -87.837979)"
2015,251343,3180 Condominium Association,Submitted,3180 N Lake Shore Dr.,60657,,,LAKE VIEW,Multifamily Housing,"313,704",1954,1,,57,"6,508,714","20,854,824",,,,87.2,135,90.8,138.69999999999999,"2,415",7.7,41.939042059999998,-87.639161689999995,"(41.93904206, -87.63916169)"
2017,224416,400 East Ohio Condominium Association,Submitted,400 E Ohio Street,60611,,,NEAR NORTH SIDE,Multifamily Housing,"285,156",1981,1,,26,"13,425,074","5,827,373",,,,67.5,169.3,71.7,179.6,"2,791.7",9.8,41.89285273,-87.61741095,"(41.89285273, -87.61741095)"
2016,160142,U.S. Cellular Plaza - 8430 _ Goby LLC,Submitted,8430 West Bryn Mawr Avenue,60631,,,OHARE,Office,"200,150",1981,1,,64,"15,754,862.2",,,,,78.7,247.2,79.6,250,"2,904",14.5,41.981131,-87.837979,"(41.981131, -87.837979)"
2015,100397,Bogan High S-CPS,Submitted,3939 W 79th St,60652,,,ASHBURN,K-12 School,"184,611",1959,1,,64,"4,298,547","8,896,072",,,,71.5,123.7,75.599999999999994,128,"1,336",7.2,41.749459000000002,-87.720146,"(41.749459, -87.720146)"
2017,250105,Mary Jane Richardson-Jones Apartments,Submitted,4930 S. LANGLEY AVE,60615,,,GRAND BOULEVARD,Multifamily Housing,"149,900",1968,1,,72,"2,411,069","8,232,490",,,,71,108.2,76.4,114.1,883.1,5.9,41.80520171,-87.60925164,"(41.80520171, -87.60925164)"
2016,159981,7447 South Shore LLC,Submitted,7447 S. South Shore Drive,60649,,,SOUTH SHORE,Multifamily Housing,"334,983",1968,1,,24,"8,296,291.6","27,520,191.8",,,,106.9,164,116.6,174.2,"2,990.9",8.9,41.761112,-87.557639,"(41.761112, -87.557639)"
2018,160345,Lake View Towers,Submitted,4550 N. Clarendon Ave.,60640,3.0,false,UPTOWN,Multifamily Housing,"451,653",1970,2,"31,834",70,"8,996,785.5","40,606,813.2",,,,109.8,150.2,111.2,151.7,"3,653.6",8.1,41.96500457,-87.65054442,"(41.96500457, -87.65054442)"
2018,251221,211 West Wacker Drive,Submitted,211 West Wacker Drive,60606,4.0,false,LOOP,Office,"188,368",1927,1,"1,358",74,"6,332,904","8,339,510.2",,,,77.9,140.6,76.4,139.1,"1,496.5",7.9,41.88651302,-87.63456426,"(41.88651302, -87.63456426)"
2016,158640,(IL278)-2000 N. Lincoln Park West,Submitted,2000 N. Lincoln Park West; 2052 N. Lincoln Park West,60614,,,LINCOLN PARK,Multifamily Housing,"263,000",1930,1,,18,"5,070,235.4","24,763,228.2",,,,113.4,159.4,113.4,159.4,"2,249.8",8.6,41.91944034,-87.63637786,"(41.91944034, -87.63637786)"
2017,232666,Transportation Building (232666),Submitted,600 South Dearborn St.,60605,,,LOOP,Multifamily Housing,"447,776",1911,1,,65,"13,091,837","5,954,796",,,,42.5,105.8,45,112.4,"2,736.9",6.1,41.87404337,-87.62944878,"(41.87404337, -87.62944878)"
2017,159298,YUSUF INDIANA,Submitted,1911 S INDIANA AVE,60647,,,NEAR SOUTH SIDE,Office,"125,265",1994,1,,15,"11,969,429","1,669,044",,,,108.9,314,110.6,315.9,"2,301.7",18.4,41.85635481,-87.62186424,"(41.85635481, -87.62186424)"
2016,173766,3314 Lake Shore Drive Condo,Submitted,3314 N. Lake Shore Drive,60657,,,LAKE VIEW,Multifamily Housing,"59,752",1920,1,,6,"3,256,084.9","808,418.5",,,,68,185.3,73,199.9,643.1,10.8,41.9398511,-87.65844752,"(41.9398511, -87.65844752)"
2017,175959,5100 Hyde Park Association,Submitted,5100 Hyde Park Boulevard,60615,,,HYDE PARK,Multifamily Housing,"111,592",1910,1,,71,"709,969","6,322,234",,,,63,77.3,68.8,83.4,453.9,4.1,41.80224043,-87.60332678,"(41.80224043, -87.60332678)"
2018,158236,9672e-Renaissance Chicago Hotel,Submitted,1 West Wacker Drive,60601,2.5,false,LOOP,Hotel,"533,323",1990,1,"25,546",40,"26,806,835.2","39,836,398.8",,,,125,219.2,125.6,220.7,"6,575.6",12.3,41.88630552,-87.62834571,"(41.88630552, -87.62834571)"
2018,175850,Whole Foods KBS,Submitted,1550 North Kingsbury,60642,1.0,false,NEAR NORTH SIDE,Supermarket/Grocery Store,"74,883",2010,1,,10,"19,028,720.6","18,880,850.5",,,,506.3,976.3,509.3,979.5,"4,168.6",55.7,41.9085638,-87.65280194,"(41.9085638, -87.65280194)"
2015,251426,Haley Elemen-CPS,Submitted,11411 S Eggleston Ave,60628,,,ROSELAND,K-12 School,"101,294",1979,1,,43,"3,340,225","4,962,614",,,,82,155,87.3,163.5,935,9.1999999999999993,41.686387170000003,-87.633358290000004,"(41.68638717, -87.63335829)"
2015,158295,congress plaza hotel,Submitted,520 s. michigan ave.,60605,,,LOOP,Hotel,"600,700",1873,1,,60,"17,448,855","55,580,703",,,,121.6,188.4,125.2,191,"6,458",10.8,41.891483100000002,-87.624958149999998,"(41.8914831, -87.62495815)"
2016,101703,Algonquin #2,Submitted,1606 E. 50th Street,60615,,,KENWOOD,Multifamily Housing,"59,310",1950,1,,56,"740,656.5","5,451,499.8",,,,104.4,135.7,114.4,144.4,426.1,7.2,41.80224043,-87.60332678,"(41.80224043, -87.60332678)"
2016,157280,Noble Square Cooperative,Submitted,1165 N Milwaukee,60642,,,WEST TOWN,Multifamily Housing,"284,850",1969,1,,58,"5,975,210.4","20,671,130.8",,,,93.5,142.1,101.4,149.1,"2,199.3",7.7,41.91320618,-87.68140368,"(41.91320618, -87.68140368)"
2018,160368,River Bank Lofts Condominium Association,Submitted,550 N. Kingsbury St.,60654,4.0,false,NEAR NORTH SIDE,Multifamily Housing,"257,529",1905,1,"3,556",90,"4,319,182.6","7,551,872.9",,,,46.1,77.8,44.6,76.1,"1,119.7",4.3,41.89198248,-87.6407554,"(41.89198248, -87.6407554)"
2018,251516,Burnham-CPS,Submitted,9928 S Crandon Ave,60617,1.5,false,SOUTH DEERING,K-12 School,"78,589",1941,1,856,40,"1,245,389.2","5,687,736",,,,88.2,120.4,89.4,121.6,509.3,6.5,41.71441592,-87.56747652,"(41.71441592, -87.56747652)"
2016,157152,Metro Condominium Association (1200 W Monroe St.),Submitted,1200 W. Monroe St.,60607,,,NEAR WEST SIDE,Multifamily Housing,"281,000",2001,1,,81,"5,133,377.9","12,773,904.8",,,,63.7,105.1,68.3,107.4,"1,624.7",5.8,41.88080894,-87.65745938,"(41.88080894, -87.65745938)"
2018,177806,5514 S. Cornell Condominium Association Inc,Submitted,5514-5524 S Cornell Ave,60637,3.0,false,HYDE PARK,Multifamily Housing,"54,634",1914,1,"1,111",64,"389,121.5","4,150,580.6",,,,83.1,99.7,84.2,100.3,285.2,5.2,41.79445107,-87.5861799,"(41.79445107, -87.5861799)"
2018,172485,Westminster Condominium Association,Submitted,36-50 N. Menard Avenue,60644,4.0,false,AUSTIN,Multifamily Housing,"67,968",1930,1,"2,860",75,"1,021,972.5","3,805,742.1",,,,71,100.9,69.1,97.9,372.2,5.5,41.88039405,-87.75826967,"(41.88039405, -87.75826967)"
2016,103661,One Magnificent Mile,Submitted,980 North Michigan Avenue,60611,,,NEAR NORTH SIDE,Multifamily Housing,"1,043,516.8",1983,1,,76,"48,832,271",,,,,46.8,146.9,49.2,154.5,"9,000.8",8.6,41.90055628,-87.62421483,"(41.90055628, -87.62421483)"
2015,134735,Searle Chemistry Laboratory,Submitted,5715-35 S Ellis Ave,60637,,,HYDE PARK,Laboratory,"85,570",2009,1,,,"15,029,335","54,350","25,523,159","20,681,998",,716.2,"1,152.7",714.4,"1,152.8","5,807",67.900000000000006,41.79059152,-87.601018890000006,"(41.79059152, -87.60101889)"
2016,241873,The Columbian Condominium Association,Submitted,1160 S Michigan Ave,60605,,,LOOP,Multifamily Housing,"464,164",2007,1,,83,"9,016,800.3","17,357,605.7",,,,56.8,100.3,59.6,101.6,"2,583.9",5.6,41.86776111,-87.62464689,"(41.86776111, -87.62464689)"
2016,251210,Roseland Centre 10450 S Michigan,Submitted,10450 S Michigan,60628,,,ROSELAND,Senior Care Community,"76,788",2006,1,,41,"4,027,565.7","3,425,499.9",,,,97.1,211.5,101.5,216.2,924.3,12,41.70391392,-87.62122517,"(41.70391392, -87.62122517)"
2014,112188,Dunbar Vocat-CPS,Submitted,3000 S King Dr,60616,,,DOUGLAS,K-12 School,"319,937",1955,1,,15,"5,044,007","26,713,862",,,,99,137,97,135,"2,432",7.6,41.83978929,-87.61953177,"(41.83978929, -87.61953177)"
2015,240400,4343 N. Clarendon,Submitted,4343 N. Clarendon Ave.,60613,,,UPTOWN,Multifamily Housing,"414,754",1973,1,,4,"14,407,303","45,289,127",,,,143.9,223.7,149.6,228.7,"5,300",12.8,41.96123446,-87.649204249999997,"(41.96123446, -87.64920425)"
2018,252091,1301 East 47th Street,Submitted,1301 East 47th Street,60653,3.0,false,KENWOOD,Other - Recreation,"92,000",1999,1,270,,"2,790,609.6","7,773,598.7",,,,114.8,173.7,114.8,173.7,877.2,9.5,41.80917058,-87.59395543,"(41.80917058, -87.59395543)"
2017,148673,Teresa Roldan Apartment on Paseo Boricua,Submitted,1154 N Campbell Ave,60622,,,WEST TOWN,Multifamily Housing,"52,240",2005,1,,,"1,965,780","3,202,643",,,,98.9,181.6,101.8,183.7,529.4,10.1,41.90225377,-87.68447845,"(41.90225377, -87.68447845)"
2016,250066,CDOT Central Office,Submitted,1501 W. Pershing Rd.,60609,,,NEW CITY,Office,"100,000",1975,1,,91,"1,111,162.8","8,827,391.4",,,,99.4,127.6,113.1,141.7,673.7,6.7,41.82315321,-87.66359976,"(41.82315321, -87.66359976)"
2018,175834,730 North Franklin,Submitted,730 N Franklin St,60654,4.0,false,NEAR NORTH SIDE,Office,"101,235",1910,1,,77,"3,044,360.4","2,918,559.5",,,,58.9,114.5,56.6,111,661.5,6.5,41.89571538,-87.6356947,"(41.89571538, -87.6356947)"
2018,172385,Marillac Soical Center,Submitted,212 South Francisco Ave,60612,1.0,false,EAST GARFIELD PARK,Pre-school/Daycare,"104,000",1995,1,"1,593",,"8,146,658.4","644,330.4",,,,84.5,225.8,82.9,221.3,"1,389.5",13.4,41.87772116,-87.69919067,"(41.87772116, -87.69919067)"
2015,251661,Burnside Sch-CPS,Submitted,648 E 91st Pl,60619,,,CHATHAM,K-12 School,"122,945",1908,1,,97,214,"6,508,271",,,,52.9,55.6,57.7,60.6,346,2.8,41.72842,-87.608271000000002,"(41.72842, -87.608271)"
2017,254001,(IL287) - The Robey,Submitted,4434-4444 N. Damen,60625,,,North Center,Multifamily Housing,"53,800",2007,1,,54,"933,581","3,091,002",,,,74.8,114.8,74.6,114.2,336.8,6.3,41.9720897,-87.70256,"(41.9720897, -87.70256)"
2017,251555,ColumExpAcdm-CPS,Submitted,4520 S Kedzie Ave,60632,,,BRIGHTON PARK,K-12 School,"108,052",2001,1,,75,"3,483,048","2,768,378",,,,57.9,128.1,60.6,130.5,791,7.3,41.81092719,-87.7044227,"(41.81092719, -87.7044227)"
2018,156782,Chicago Medical Society,Submitted,515 N Dearborn,60654,3.0,false,NEAR NORTH SIDE,Office,"52,284",1925,1,"1,328",59,"1,415,845.2","2,350,521.4",,,,72,123,69.8,120.3,360.4,6.9,41.89141925,-87.62935946,"(41.89141925, -87.62935946)"
2016,101816,5041 - North Bridge Block 119 and 120,Submitted,43 E Ohio St,60611,,,NEAR NORTH SIDE,Enclosed Mall,"450,811",1980,1,,,"12,263,028.3","71,397,664.5",,"28,070,551.9",,247.8,314,257.6,324.3,"7,531.9",16.7,41.89210858,-87.6262422,"(41.89210858, -87.6262422)"
2018,251684,Marine Lead-CPS,Submitted,1920 N Hamlin Ave,60647,2.5,false,LOGAN SQUARE,K-12 School,"126,540",1997,1,706,60,"4,342,636.6","4,698,507.6",,,,71.4,135.1,69.8,133.3,972,7.7,41.9159824,-87.72248643,"(41.9159824, -87.72248643)"
2017,159416,AMLI 900,Submitted,900 South Clark,60605,,,LOOP,Multifamily Housing,"480,050",2008,1,,45,"18,939,203","7,938,004",,,,56,141.2,58.5,148.5,"3,923.4",8.2,41.87033029,-87.63101446,"(41.87033029, -87.63101446)"
2017,244360,1720 S. Michigan Condiminium: 1720 South Michigan Avenue,Submitted,1720 South Michigan Avenue,60616,,,NEAR SOUTH SIDE,Multifamily Housing,"679,761",2006,1,,52,"18,324,279","26,288,477",,,,65.6,125.3,70,131.4,"4,784.4",7,41.85862339,-87.62421069,"(41.85862339, -87.62421069)"
2017,113598,Astor Tower CA,Submitted,1300 N Astor Street,60610,,,NEAR NORTH SIDE,Multifamily Housing,"88,613",1962,1,,16,"2,825,235","5,235,883",,,,91,162.2,97.7,169.1,800.5,9,41.9037528,-87.63558845,"(41.9037528, -87.63558845)"
2017,159646,339 W. Barry Condominium Association,Submitted,337-339 W. Barry Ave.,60657,,,LAKE VIEW,Multifamily Housing,"118,000",1967,1,,26,"2,988,591","9,621,726",,,,106.9,165.1,115.4,174.1,"1,063.6",9,41.93734867,-87.6384621,"(41.93734867, -87.6384621)"
2016,236913,Lake Park Plaza Condominium Association,Submitted,3930 N. Pine Grove Ave.,60613,,,LAKE VIEW,Multifamily Housing,"491,400",1969,1,,65,"10,292,066","29,055,223.5",,,,80.1,127.8,88,136.1,"3,440.3",7,41.95405095,-87.64853489,"(41.95405095, -87.64853489)"
2017,252060,Woodlawn Social Services Center,Submitted,950 East 61st Street,60637,,,WOODLAWN,Office,"66,084",1970,1,,63,"2,825,821",,"3,319,809",,,93,194.7,98,199.9,742.9,11.2,41.78439159,-87.60197356,"(41.78439159, -87.60197356)"
2017,175895,BVM Hall-ID#175895,Submitted,6364 N Sheridan Rd,60660,,,EDGEWATER,Office,"69,000",1959,1,,64,"4,205,345","168,452",,,,63.4,193.9,65.2,199.8,786.5,11.4,41.99090057,-87.66660744,"(41.99090057, -87.66660744)"
2017,164460,CICS Northtown,Submitted,3900 W. Peterson Ave.,60659,,,NORTH PARK,K-12 School,"124,443",1964,1,,69,"2,062,143","6,925,538",,,,72.2,110.5,79.5,118.1,749.1,6,41.9909088,-87.7279182,"(41.9909088, -87.7279182)"
2016,251476,JensenSchAca-CPS,Submitted,3024 W Harrison,60612,,,EAST GARFIELD PARK,K-12 School,"64,440",1963,1,,74,"1,692,306.3","2,387,097.8",,,,63.3,121.4,69.3,127.7,438.7,6.8,41.873768,-87.701596,"(41.873768, -87.701596)"
2018,251668,Ravenswood E-CPS,Submitted,4332 N PAULINA ST,60613,2.5,false,LAKE VIEW,K-12 School,"76,423",1884,1,780,58,"1,252,834.9","4,976,765.8",,,,81.5,114.3,78.9,111.5,472.8,6.2,41.96092641,-87.6712754,"(41.96092641, -87.6712754)"
2014,101840,Northwestern University Chicago Campus,Submitted,710N Lakeshore Dr,60611,,,NEAR NORTH SIDE,College/University,"2,238,599",1925,12,,,"219,950,383","516,911,375",,,"20,981,795",339,560,,,"73,204",32.7,41.89534174,-87.61664801,"(41.89534174, -87.61664801)"
2018,141031,"Sterling Condominium, The",Submitted,4101-21 N Sheridan,60613,3.0,false,UPTOWN,Multifamily Housing,"69,720",1919,1,"2,985",65,"1,213,706.4","3,786,863.2",,,,71.7,105.8,70,104,403.1,5.8,41.95402016,-87.6620278,"(41.95402016, -87.6620278)"
2018,173710,1430 Lake Shore Drive Building Corporation,Submitted,1430 N. Lake Shore Dr.,60610,2.0,false,NEAR NORTH SIDE,Multifamily Housing,"117,024",1924,1,"1,636",29,"2,915,004.7","7,914,256",,,,92.5,140.8,93.2,140.4,905.3,7.7,41.9037528,-87.63558845,"(41.9037528, -87.63558845)"
2018,101788,333 West Wacker,Submitted,333 West Wacker Drive,60606,4.0,false,LOOP,Office,"1,012,961",1982,1,"12,190",69,"55,336,532.5",,,,"103,500",54.7,153.1,54.7,153.1,"9,213.7",9.1,41.88609655,-87.63591682,"(41.88609655, -87.63591682)"
